,place_id,place_name,lat,lng,place_address,category
0,0,가락시장역,37.4923175,127.118104,서울특별시 송파구,지하철
1,1,가산디지털단지역,37.48089,126.8825735,서울특별시 금천구,지하철
2,2,강남역,37.49794199999999,127.027621,서울특별시 강남구,지하철
3,3,강동역,37.53594,127.13218700000002,서울특별시 강동구,지하철
4,4,강변역,37.535144,127.094672,서울특별시 광진구,지하철
5,5,개농역,37.4981619,127.1346598,서울특별시 광진구,지하철
6,6,개화산역,37.572455,126.806839,서울특별시 강서구,지하철
7,7,거여역,37.493422,127.143597,서울특별시 송파구,지하철
8,8,건대입구역,37.54038900000001,127.069236,서울특별시 광진구,지하철
9,9,고덕역,37.555051,127.15411,서울특별시 강동구,지하철
10,10,고려대역,37.590401,127.035859,서울특별시 성북구,지하철
11,11,고속터미널역,37.5049142,127.00491509999998,서울특별시 서초구,지하철
12,12,공덕역,37.54322,126.951576,서울특별시 마포구,지하철
13,13,공릉역,37.625787,127.072894,서울특별시 노원구,지하철
14,14,광나루역,37.54533199999999,127.103606,서울특별시 광진구,지하철
15,15,광화문역,37.5705263,126.9765729,서울특별시 종로구,지하철
16,16,광흥창역,37.54747800000001,126.931855,서울특별시 마포구,지하철
17,17,교대역,37.4934705,127.0142285,서울특별시 서초구,지하철
18,18,구로디지털단지역,37.48525,126.901472,서울특별시 구로구,지하철
19,19,구산역,37.611324,126.917297,서울특별시 은평구,지하철
20,20,구의역,37.5368933,127.0852645,서울특별시 광진구,지하철
21,21,구파발역,37.636581,126.918833,서울특별시 은평구,지하철
22,22,군자역,37.5573355,127.07958899999998,서울특별시 광진구,지하철
23,23,굽은다리역,37.545539,127.142906,서울특별시 강동구,지하철
24,24,금호역,37.54826,127.01578899999998,서울특별시 성동구,지하철
25,25,길동역,37.537769,127.139992,서울특별시 강동구,지하철
26,26,길음역,37.603185,127.024914,서울특별시 성북구,지하철
27,27,김포공항역,37.5618288,126.8019274,서울특별시 강서구,지하철
28,28,까치산역,37.5317675,126.8467055,서울특별시 강서구,지하철
29,29,낙성대역,37.477117,126.963418,서울특별시 관악구,지하철
30,30,남구로역,37.486087,126.887272,서울특별시 구로구,지하철
31,31,남부터미널역,37.48491,127.016274,서울특별시 서초구,지하철
32,32,남성역,37.484876,126.970673,서울특별시 동작구,지하철
33,33,남태령역,37.464237,126.989097,서울특별시 서초구,지하철
34,34,내방역,37.487707,126.993598,서울특별시 서초구,지하철
35,35,노원역,37.656349,127.063354,서울특별시 노원구,지하철
36,36,녹번역,37.600869,126.935761,서울특별시 은평구,지하철
37,37,녹사평역,37.534945,126.9853515,서울특별시 용산구,지하철
38,38,논현역,37.511206,127.021728,서울특별시 강남구,지하철
39,39,답십리역,37.567072,127.052382,서울특별시 성동구,지하철
40,40,당고개역,37.67026,127.079011,서울특별시 노원구,지하철
41,41,당산역,37.5340278,126.90199009999998,서울특별시 영등포구,지하철
42,42,대림역,37.4930835,126.8957865,서울특별시 구로구,지하철
43,43,대청역,37.493601,127.079526,서울특별시 강남구,지하철
44,44,대치역,37.494569,127.063446,서울특별시 강남구,지하철
45,45,대흥역,37.547674,126.942332,서울특별시 마포구,지하철
46,46,도곡역,37.49106,127.0556945,서울특별시 강남구,지하철
47,47,도림천역,37.51446,126.882624,서울특별시 구로구,지하철
48,48,도봉산역,37.689596,127.0461945,서울특별시 도봉구,지하철
49,49,독립문역,37.57445300000001,126.957918,서울특별시 서대문구,지하철
50,50,독바위역,37.618387,126.933037,서울특별시 은평구,지하철
51,51,돌곶이역,37.610493,127.056403,서울특별시 성북구,지하철
52,52,동대문역,37.5709433,127.0065724,서울특별시 종로구,지하철
53,53,동대문역사문화공원역,37.565102,127.007765,서울특별시 중구,지하철
54,54,동대입구역,37.558126,127.005316,서울특별시 중구,지하철
55,55,동묘앞역,37.572729,127.016008,서울특별시 종로구,지하철
56,56,동작역,37.503062,126.97909950000002,서울특별시 동작구,지하철
57,57,둔촌동역,37.527657,127.136231,서울특별시 강동구,지하철
58,58,뚝섬역,37.54724,127.04731,서울특별시 성동구,지하철
59,59,뚝섬유원지역,37.531537,127.066691,서울특별시 광진구,지하철
60,60,마들역,37.665375,127.057614,서울특별시 노원구,지하철
61,61,마장역,37.566127,127.042965,서울특별시 성동구,지하철
62,62,마포역,37.539705,126.94604,서울특별시 마포구,지하철
63,63,망원역,37.55597720000001,126.9012821,서울특별시 마포구,지하철
64,64,매봉역,37.48703500000001,127.046918,서울특별시 강남구,지하철
65,65,먹골역,37.61078,127.077707,서울특별시 중랑구,지하철
66,66,면목역,37.588745,127.087494,서울특별시 중랑구,지하철
67,67,명동역,37.5609892,126.9861868,서울특별시 중구,지하철
68,68,명일역,37.55131,127.14401399999998,서울특별시 강동구,지하철
69,69,목동역,37.526072,126.864301,서울특별시 양천구,지하철
70,70,몽촌토성역,37.517641,127.11274,서울특별시 송파구,지하철
71,71,무악재역,37.58263400000001,126.950134,서울특별시 서대문구,지하철
72,72,문래역,37.5169837,126.8993953,서울특별시 영등포구,지하철
73,73,미아역,37.626394,127.026132,서울특별시 강북구,지하철
74,74,미아삼거리역,37.613251,127.030084,서울특별시 강북구,지하철
75,75,반포역,37.508213,127.011847,서울특별시 서초구,지하철
76,76,발산역,37.55868299999999,126.837595,서울특별시 강서구,지하철
77,77,방배역,37.481512,126.997638,서울특별시 서초구,지하철
78,78,방이역,37.50855900000001,127.12596,서울특별시 송파구,지하철
79,79,방화역,37.577622,126.812826,서울특별시 강서구,지하철
80,80,버티고개역,37.5478919,127.0071227,서울특별시 중구,지하철
81,81,보라매역,37.499929,126.920282,서울특별시 영등포구,지하철
82,82,보문역,37.585331,127.01939099999998,서울특별시 성북구,지하철
83,83,복정역,37.470375,127.126685,서울특별시 송파구,지하철
84,84,봉천역,37.482476,126.941574,서울특별시 관악구,지하철
85,85,봉화산역,37.61180820000001,127.0882053,서울특별시 중랑구,지하철
86,86,불광역,37.6105025,126.9298435,서울특별시 은평구,지하철
87,87,사가정역,37.580966,127.088503,서울특별시 중랑구,지하철
88,88,사당역,37.476559,126.981633,서울특별시 동작구,지하철
89,89,삼각지역,37.5350315,126.9734515,서울특별시 용산구,지하철
90,90,삼성역,37.508861,127.063149,서울특별시 강남구,지하철
91,91,상계역,37.660566,127.073202,서울특별시 노원구,지하철
92,92,상도역,37.503072,126.947753,서울특별시 동작구,지하철
93,93,상봉역,37.5952536,127.0858527,서울특별시 중랑구,지하철
94,94,상수역,37.54547279999999,126.9244174,서울특별시 마포구,지하철
95,95,상왕십리역,37.5645,127.028872,서울특별시 성동구,지하철
96,96,상월곡역,37.6066,127.048862,서울특별시 성북구,지하철
97,97,상일동역,37.5570545,127.169184,서울특별시 강동구,지하철
98,98,새절역,37.591014,126.913582,서울특별시 은평구,지하철
99,99,서대문역,37.56577,126.96665,서울특별시 종로구,지하철
100,100,서울대입구역,37.48121,126.952712,서울특별시 관악구,지하철
101,101,서울역역,37.5536067,126.9696195,서울특별시 중구,지하철
102,102,서초역,37.49184,127.007688,서울특별시 서초구,지하철
103,103,석계역,37.6150815,127.0657675,서울특별시 노원구,지하철
104,104,석촌역,37.505438,127.106981,서울특별시 송파구,지하철
105,105,선릉역,37.504479,127.048941,서울특별시 강남구,지하철
106,106,성내역,37.520661,127.103822,서울특별시 송파구,지하철
107,107,성수역,37.544569,127.055974,서울특별시 성동구,지하철
108,108,성신대입구역,37.59272,127.016544,서울특별시 성동구,지하철
109,109,송파역,37.499739,127.112201,서울특별시 송파구,지하철
110,110,수락산역,37.677881,127.055293,서울특별시 노원구,지하철
111,111,수색역,37.5840042,126.8955434,서울특별시 은평구,지하철
112,112,수서역,37.4874685,127.10132450000002,서울특별시 강남구,지하철
113,113,수유역,37.6371095,127.0247325,서울특별시 강북구,지하철
114,114,숙대입구역,37.545097,126.971987,서울특별시 용산구,지하철
115,115,숭실대입구역,37.496374,126.953504,서울특별시 동작구,지하철
116,116,시청역,37.5657037,126.9768616,서울특별시 중구,지하철
117,117,신금호역,37.554468,127.020794,서울특별시 성동구,지하철
118,118,신길역,37.517346,126.9164095,서울특별시 영등포구,지하철
119,119,신당역,37.565671,127.019468,서울특별시 중구,지하철
120,120,신대방역,37.487519,126.913282,서울특별시 동작구,지하철
121,121,신대방삼거리역,37.499717,126.928189,서울특별시 동작구,지하철
122,122,신도림역,37.508562,126.891336,서울특별시 구로구,지하철
123,123,신림역,37.4626176,126.9383251,서울특별시 관악구,지하철
124,124,신사역,37.524124,127.022883,서울특별시 강남구,지하철
125,125,신설동역,37.575326,127.02484950000002,서울특별시 동대문구,지하철
126,126,신용산역,37.529187,126.967886,서울특별시 용산구,지하철
127,127,신정역,37.524977,126.856164,서울특별시 양천구,지하철
128,128,신정네거리역,37.520209,126.852796,서울특별시 양천구,지하철
129,129,신촌역,37.559768,126.942308,서울특별시 마포구,지하철
130,130,신풍역,37.50013,126.908969,서울특별시 영등포구,지하철
131,131,쌍문역,37.6482236,127.0343875,서울특별시 도봉구,지하철
132,132,아차산역,37.552404,127.089107,서울특별시 광진구,지하철
133,133,아현역,37.557382,126.956083,서울특별시 마포구,지하철
134,134,안국역,37.576556,126.985472,서울특별시 종로구,지하철
135,135,안암역,37.586296,127.029137,서울특별시 성북구,지하철
136,136,암사역,37.550148,127.127519,서울특별시 강동구,지하철
137,137,압구정역,37.53168400000001,127.0302926,서울특별시 강남구,지하철
138,138,애오개역,37.55359,126.95673899999998,서울특별시 마포구,지하철
139,139,약수역,37.554431,127.010444,서울특별시 중구,지하철
140,140,양재역,37.484102,127.034369,서울특별시 서초구,지하철
141,141,어린이대공원역,37.54790500000001,127.074593,서울특별시 광진구,지하철
142,142,여의나루역,37.527141,126.93281,서울특별시 영등포구,지하철
143,143,여의도역,37.5215695,126.9243115,서울특별시 영등포구,지하철
144,144,역삼역,37.500326,127.036087,서울특별시 강남구,지하철
145,145,역촌역,37.60631400000001,126.922881,서울특별시 은평구,지하철
146,146,연신내역,37.618812,126.920842,서울특별시 은평구,지하철
147,147,영등포시장역,37.52271760000001,126.9051461,서울특별시 영등포구,지하철
148,148,오금역,37.5022335,127.128354,서울특별시 송파구,지하철
149,149,오목교역,37.524553,126.87505,서울특별시 양천구,지하철
150,150,옥수역,37.540514,127.018698,서울특별시 성동구,지하철
151,151,온수역,37.4921505,126.8236345,서울특별시 구로구,지하철
152,152,왕십리역,37.5611284,127.035505,서울특별시 성동구,지하철
153,153,용마산역,37.57379299999999,127.086818,서울특별시 중랑구,지하철
154,154,우장산역,37.548783,126.836334,서울특별시 강서구,지하철
155,155,월곡역,37.601925,127.04153,서울특별시 성북구,지하철
156,156,을지로3가역,37.566286,126.9917735,서울특별시 중구,지하철
157,157,을지로4가역,37.5670145,126.9978305,서울특별시 중구,지하철
158,158,을지로입구역,37.566056,126.982662,서울특별시 중구,지하철
159,159,응암역,37.598472,126.915592,서울특별시 은평구,지하철
160,160,이대역,37.556761,126.945857,서울특별시 마포구,지하철
161,161,이촌역,37.5224761,126.9738155,서울특별시 용산구,지하철
162,162,이태원역,37.534533,126.994579,서울특별시 용산구,지하철
163,163,일원역,37.483869,127.084032,서울특별시 강남구,지하철
164,164,잠실역,37.5132612,127.1001336,서울특별시 송파구,지하철
165,165,잠원역,37.51296,127.01161100000002,서울특별시 서초구,지하철
166,166,장승배기역,37.504905,126.939191,서울특별시 동작구,지하철
167,167,장지역,37.477699,127.126274,서울특별시 송파구,지하철
168,168,장한평역,37.56147199999999,127.064657,서울특별시 동대문구,지하철
169,169,제기동역,37.578162,127.034895,서울특별시 동대문구,지하철
170,170,종각역,37.570169,126.983099,서울특별시 종로구,지하철
171,171,종로3가역,37.5715,126.9912475,서울특별시 종로구,지하철
172,172,종로5가역,37.570988,127.001921,서울특별시 종로구,지하철
173,173,종합운동장역,37.51105099999999,127.073774,서울특별시 송파구,지하철
174,174,중계역,37.645494,127.063907,서울특별시 노원구,지하철
175,175,중곡역,37.565535,127.084086,서울특별시 광진구,지하철
176,176,중화역,37.602572,127.079285,서울특별시 중랑구,지하철
177,177,증산역,37.583933,126.909686,서울특별시 은평구,지하철
178,178,창동역,37.653454,127.047574,서울특별시 도봉구,지하철
179,179,창신역,37.579361,127.015281,서울특별시 종로구,지하철
180,180,천왕역,37.486686,126.838681,서울특별시 구로구,지하철
181,181,천호역,37.5439937,127.1256452,서울특별시 강동구,지하철
182,182,청구역,37.5591145,127.0131005,서울특별시 중구,지하철
183,183,청담역,37.51912,127.051937,서울특별시 강남구,지하철
184,184,청량리역,37.581381,127.048958,서울특별시 동대문구,지하철
185,185,총신대입구역,37.486491,126.981876,서울특별시 동작구,지하철
186,186,총신대입구(이수)역,37.48665099999999,126.98216399999998,서울특별시 동작구,지하철
187,187,충무로역,37.5609739,126.9935287,서울특별시 중구,지하철
188,188,충정로역,37.560055,126.963672,서울특별시 서대문구,지하철
189,189,태릉입구역,37.6179085,127.0750345,서울특별시 노원구,지하철
190,190,하계역,37.63595,127.068213,서울특별시 노원구,지하철
191,191,학동역,37.5135304,127.0315341,서울특별시 강남구,지하철
192,192,학여울역,37.496683,127.070549,서울특별시 강남구,지하철
193,193,한강진역,37.539518,127.001736,서울특별시 용산구,지하철
194,194,한성대입구역,37.588374,127.005907,서울특별시 성북구,지하철
195,195,한양대역,37.5556003,127.0436832,서울특별시 성동구,지하철
196,196,합정역,37.5495753,126.9139908,서울특별시 마포구,지하철
197,197,행당역,37.557402,127.029637,서울특별시 성동구,지하철
198,198,혜화역,37.58208,127.001892,서울특별시 종로구,지하철
199,199,홍대입구역,37.557527,126.9244669,서울특별시 마포구,지하철
200,200,홍제역,37.588792,126.944094,서울특별시 서대문구,지하철
201,201,화랑대역,37.620513,127.084244,서울특별시 노원구,지하철
202,202,회현역,37.5596339,126.9797158,서울특별시 중구,지하철
203,203,효창공원앞역,37.539289,126.961339,서울특별시 용산구,지하철
204,204,A아트홀(구.신연아트홀),37.58326870000001,127.002443,서울특별시 종로구 동숭동 1-37,영화관/공연장
205,205,BBC씨어터,37.5239298,127.0251432,서울특별시 강남구 신사동  568-2,영화관/공연장
206,206,BREAK OUT 전용극장,37.5688354,126.988123,서울특별시 종로구 관철동 33-1,영화관/공연장
207,207,CGV 강남,37.501621,127.0263906,서울특별시 강남구 역삼동 814-6 스타플렉스 4-11층,영화관/공연장
208,208,CGV 명동,37.5634244,126.9829197,서울특별시 중구 명동2가 83-5 눈스퀘어 8층,영화관/공연장
209,209,CGV 상암,37.569950899999995,126.899029,서울특별시 마포구 월드컵로 240,영화관/공연장
210,210,CGV 송파,37.4787378,127.1211166,서울특별시 송파구 문정동 294 가든파이브 라이프 YOUNG관 10층,영화관/공연장
211,211,CGV강변,37.52845170000001,127.1253784,서울특별시 강동구 성내로 48,영화관/공연장
212,212,CGV구로,37.5011769,126.8828472,서울특별시 구로구 구로중앙로 152,영화관/공연장
213,213,CGV군자,37.5558098,127.0783645,서울특별시 광진구 능동로  289,영화관/공연장
214,214,CGV대학로,37.570650799999996,126.9729916,서울특별시 종로구 새문안로 75,영화관/공연장
215,215,CGV목동,37.5265922,126.8744517,서울특별시 양천구 목동동로 257,영화관/공연장
216,216,CGV불광,37.60974,126.92896809999999,서울특별시 은평구 불광로  20,영화관/공연장
217,217,CGV신촌아트레온,37.556540399999996,126.9402938,서울특별시 서대문구 신촌로  129,영화관/공연장
218,218,CGV신한카드아트홀(구 CGV팝아트홀),37.5170517,126.90333319999999,서울특별시 영등포구 영등포동 4가 442번지 타임스퀘어내 CGV팝아트홀 7층,영화관/공연장
219,219,CGV압구정,37.5243665,127.0294163,서울특별시 강남구 압구정로30길  45,영화관/공연장
220,220,CGV영등포,37.529261299999995,126.9249062,서울특별시 영등포구 여의공원로 101,영화관/공연장
221,221,CLUB mASS,37.499552200000004,127.02630790000002,서울특별시 서초구 서초4동 1306-8번지 대동빌딩 B1,영화관/공연장
222,222,GS타워 소극장,37.5015494,127.03731770000002,서울특별시 강남구 역삼1동 679-1 GS타워 25층,영화관/공연장
223,223,JW 메리어트호텔 그랜드볼룸,37.504322200000004,127.00353829999999,서울특별시 서초구 반포동 19-3 메리어트호텔,영화관/공연장
224,224,LG아트센터,37.5019921,127.03735220000002,서울특별시 강남구 논현로  508,영화관/공연장
225,225,LIG아트홀,37.49920529999999,127.0302669,서울특별시 강남구 테헤란로  117,영화관/공연장
226,226,건국대학교 국제회의장,37.5438883,127.07595459999999,서울특별시 광진구 능동로 120 (화양동),영화관/공연장
227,227,국립극장,37.5529157,127.00006680000001,서울특별시 중구 장충동2가 14-67번지,영화관/공연장
228,228,국립중앙박물관 극장 용,37.5202471,126.9824662,서울특별시 용산구 용산동 6가 168-6번지,영화관/공연장
229,229,그랜드 앰배서더 서울 그랜드 볼룸,37.5601325,127.00231000000001,서울특별시 중구 장충동 2가 186-54,영화관/공연장
230,230,그랜드하얏트서울 그랜드볼룸,37.53955,126.9977202,서울특별시 용산구 한남동 747-7,영화관/공연장
231,231,그랜드힐튼호텔 컨벤션홀,37.5885865,126.934996,서울특별시 서대문구 연희로 353,영화관/공연장
232,232,금호아트홀,37.58347070000001,126.99985490000002,서울특별시 종로구 대명길 28,영화관/공연장
233,233,나루아트센터,37.5374246,127.070453,서울특별시 광진구 능동로 76 (자양동),영화관/공연장
234,234,난타전용관(명동),37.5634602,126.98375190000002,서울특별시 중구 명동 2가 50-14 유네스코빌딩 3층,영화관/공연장
235,235,난타전용관(홍대),37.553188,126.92118020000001,"서울특별시 마포구 양화로16길 29 옐로우다이아몬드 지하 2,3층",영화관/공연장
236,236,남산예술센터,37.5587774,126.98824840000002,서울특별시 중구 소파로 138 (예장동 8-19),영화관/공연장
237,237,대학로 SH 아트홀,37.57992279999999,127.0034942,서울특별시 종로구 동숭동 1-131,영화관/공연장
238,238,대학로 웃찾사 전용관(구.Boom Box),37.5815943,127.0028104,서울특별시 종로구 동숭동 1-113번지 지하 1층,영화관/공연장
239,239,대학로예술극장,37.582072499999995,127.0031764,서울특별시 종로구 대학로10길 17,영화관/공연장
240,240,대한극장,37.559878499999996,126.9671041,서울특별시 중구 청파로 463,영화관/공연장
241,241,동숭아트센터,37.5837122,127.0037278,서울특별시 종로구 동숭길 122,영화관/공연장
242,242,동영아트홀 (구 계몽아트홀),37.497800399999996,127.0441092,서울특별시 강남구 역삼동 772,영화관/공연장
243,243,디마떼오홀,37.5801365,127.0039895,서울특별시 종로구 동숭동 1-141,영화관/공연장
244,244,라트어린이극장,37.484263399999996,127.0421783,서울특별시 강남구 도곡동 514-1,영화관/공연장
245,245,레진코믹스 브이홀,37.55441500000001,126.92196609999999,서울특별시 마포구 홍익로 25 서교호텔별관 지하,영화관/공연장
246,246,롯데몰 김포공항점,37.571369399999995,126.80296000000001,서울특별시 강서구 하늘길  38,영화관/공연장
247,247,롯데백화점 노원점,37.655043400000004,127.06109709999998,서울특별시 노원구 동일로 1414,영화관/공연장
248,248,롯데시네마 강동,37.5366479,127.1253571,서울특별시 강동구 천호옛길 85,영화관/공연장
249,249,롯데시네마 강동관,37.536654999999996,127.125348,서울특별시 강동구 성내동 44-1,영화관/공연장
250,250,롯데시네마 건대입구관,37.537510499999996,127.0725939,서울특별시 광진구 아차산로 262 (자양동),영화관/공연장
251,251,롯데시네마 누리꿈(상암),37.57917910000001,126.8903547,서울특별시 마포구 월드컵북로 396 누리꿈스퀘어빌딩 디지털파빌리온 4층,영화관/공연장
252,252,롯데시네마 브로드웨이,37.5163809,127.021971,서울특별시 강남구 도산대로8길 8,영화관/공연장
253,253,롯데시네마 씨티(강남),37.5003768,127.0269314,서울특별시 강남구 역삼동 816,영화관/공연장
254,254,롯데시네마 피카디리관,37.571043700000004,126.9912115,서울특별시 종로구 돈의동 137,영화관/공연장
255,255,롯데시네마 합정,37.548932799999996,126.91367439999999,서울특별시 마포구 양화로 45,영화관/공연장
256,256,롯데시네마 홍대입구,37.5572394,126.9249811,서울특별시 마포구 양화로  176,영화관/공연장
257,257,롯데시네마 황학,37.571029100000004,127.0212194,서울특별시 중구 황학동 2545 롯데캐슬 베네치아 1층 1222~4호,영화관/공연장
258,258,루나틱전용관,37.580126299999996,127.0042551,서울특별시 종로구 동숭동 1-150 지하1층,영화관/공연장
259,259,르네상스 서울호텔,37.5032294,127.04149840000002,서울특별시 강남구 역삼동 676번지 3층,영화관/공연장
260,260,리츠칼튼 서울호텔 그랜드볼룸,37.50486710000001,127.0268226,"서울특별시 강남구 역삼동 602, The Ritz-Carlton, Seoul",영화관/공연장
261,261,마포아트센터,37.5499041,126.9455277,서울특별시 마포구 대흥로20길   28,영화관/공연장
262,262,메가박스 강남,37.4979429,127.0265303,서울특별시 서초구 서초동 1317-20 아라타워 8층 씨너스 강남,영화관/공연장
263,263,메가박스 동대문,37.5658032,127.0074043,서울특별시 중구 을지로6가 21,영화관/공연장
264,264,메가박스 목동,37.529139799999996,126.87601740000001,서울특별시 양천구 목동동로 309,영화관/공연장
265,265,메가박스 상봉,37.593086299999996,127.0747635,서울특별시 중랑구 망우로30길 3,영화관/공연장
266,266,메가박스 수유,37.6424093,127.0298017,서울특별시 강북구 도봉로 399,영화관/공연장
267,267,메가박스 신촌,37.559830700000006,126.9423898,서울특별시 서대문구 신촌역로  30,영화관/공연장
268,268,메가박스 아트나인,37.4848049,126.98168500000001,서울특별시 동작구 동작대로 89,영화관/공연장
269,269,메가박스 코엑스,37.512487799999995,127.058853,서울특별시 강남구 삼성동 159,영화관/공연장
270,270,명동예술극장,37.564057,126.9841854,서울특별시 중구 명동길 35 명동예술극장,영화관/공연장
271,271,명보아트홀,37.5647012,126.99321509999999,서울특별시 중구 초동 18-5,영화관/공연장
272,272,모차르트홀,37.486433899999994,127.00455159999999,서울특별시 서초구 서초3동 1515-3번지 모차르트빌딩 2층,영화관/공연장
273,273,목동아이스링크,37.530525399999995,126.88169690000001,서울특별시 양천구 목1동 914,영화관/공연장
274,274,문예회관소극장,37.5799333,127.00289699999999,서울특별시 종로구 동숭동 1-130,영화관/공연장
275,275,문화일보홀,37.5671176,126.96867350000001,서울특별시 중구 충정로 1가 68번지 문화일보홀,영화관/공연장
276,276,뮤지컬 전용관 팝콘하우스,37.5658696,126.972876,서울특별시 중구 정동 8-11 (구 정동이벤트홀),영화관/공연장
277,277,민속극장 풍류,37.510234999999994,127.0446673,서울특별시 강남구 삼성동 112-2 한국문화재보호재단,영화관/공연장
278,278,백암아트홀,37.5105408,127.065929,서울특별시 강남구 삼성동 170-5 백암아트홀,영화관/공연장
279,279,삼성동 섬유센터 이벤트홀,37.5074584,127.0606539,서울특별시 강남구 대치동 944-31,영화관/공연장
280,280,상상마당 라이브홀,37.55094879999999,126.92106580000001,서울특별시 마포구 어울마당로 65,영화관/공연장
281,281,샘터파랑새극장,37.5815515,127.0023436,서울특별시 종로구 동숭동 1-115,영화관/공연장
282,282,샤롯데씨어터,37.5119444,127.1009753,서울특별시 송파구 잠실동 41-1번지,영화관/공연장
283,283,서강대학교 메리홀,37.5517132,126.9410634,서울특별시 마포구 백범로 35 서강대학교 커뮤니케이션센터 메리홀 105호,영화관/공연장
284,284,서울 신라호텔 다이너스티홀,37.5568322,127.0063426,서울특별시 중구 장충동2가 202,영화관/공연장
285,285,서울 잠실 학생체육관,37.5121532,127.0754598,서울특별시 송파구 잠실1동 10-3 종합운동장 내,영화관/공연장
286,286,서울교육문화회관 대극장,37.4669827,127.03253959999999,서울특별시 서초구 양재2동 202번지,영화관/공연장
287,287,서울극장,37.572185,126.97686609999998,서울특별시 종로구 세종대로 175,영화관/공연장
288,288,서울놀이마당,37.5077131,127.10058300000001,서울특별시 송파구 잠실동 47번지,영화관/공연장
289,289,서울바로크챔버홀(구 DS홀),37.4817324,127.01450849999999,서울특별시 서초구 서초3동 1450-2 DSI빌딩 3층,영화관/공연장
290,290,서울애니시네마,37.5584252,126.9879469,서울특별시 중구 예장동8-145,영화관/공연장
291,291,서울패션아트홀,37.567161,127.01213200000001,서울특별시 중구 신당동 251-7번지 서울패션센터 5층 서울패션아트홀,영화관/공연장
292,292,세라믹팔레스홀,37.4857831,127.08235330000001,서울특별시 강남구 일원동 713,영화관/공연장
293,293,세익스피어 극장,37.580551299999996,127.0042271,서울특별시 종로구 동숭동 1-147,영화관/공연장
294,294,세종대학교 대양홀,37.5514706,127.073884,서울특별시 광진구 능동로 209 (군자동),영화관/공연장
295,295,세종문화회관,37.5764761,127.0039365,서울특별시 종로구 이화장길 26,영화관/공연장
296,296,소공동 롯데호텔 크리스탈볼룸,37.5646602,126.98095330000001,서울특별시 중구 소공동 1번지 롯데호텔 2층,영화관/공연장
297,297,송파 청소년 수련관,37.48957720000001,127.1107344,서울특별시 송파구 문정동 150-8,영화관/공연장
298,298,숭실대학교 한경직기념관 대강당,37.496251799999996,126.95731509999999,서울특별시 동작구 상도로369 숭실대학교,영화관/공연장
299,299,쉐라톤그랜드워커힐호텔 워커힐씨어터,37.5586439,127.1117098,서울특별시 광진구 워커힐로 177 (광장동),영화관/공연장
300,300,스폰지하우스(광화문),37.5680265,126.97593810000001,서울특별시 중구 태평로1가 61-21,영화관/공연장
301,301,시티렉스(CT-LEX),37.4692769,126.89707630000001,서울특별시 금천구 시흥대로 399,영화관/공연장
302,302,아르코(ArKo)예술극장,37.5811843,127.0029436,서울특별시 종로구 동숭동 1-111,영화관/공연장
303,303,아티움,37.51289860000001,127.0571338,서울특별시 강남구 봉은사로  524,영화관/공연장
304,304,알과핵 소극장,37.579938299999995,127.003689,서울특별시 종로구 동숭동 1-140 (마로니에유리빌딩지하1층),영화관/공연장
305,305,암사어린이극장,37.5634651,127.13338459999999,서울특별시 강동구 암사동116-22 (암사동 선사유적지 근처),영화관/공연장
306,306,압구정 예홀,37.5278631,127.0362481,서울특별시 강남구 신사동 640-2 로빈명풍관 지하1층,영화관/공연장
307,307,양재동 aT센터(농수산물유통공사),37.4681722,127.03932250000001,서울특별시 서초구 양재동 232번지 aT센터,영화관/공연장
308,308,역삼1문화센터,37.4952786,127.03324099999999,서울특별시 강남구 역삼동 829-20,영화관/공연장
309,309,연세대학교 노천극장,37.564936700000004,126.9383335,서울특별시 서대문구 연세로 50 연세대학교 노천극장,영화관/공연장
310,310,영산아트홀,37.5172195,126.90392949999999,서울특별시 영등포구 영중로  15,영화관/공연장
311,311,예술마당,37.5710325,126.9912412,서울특별시 종로구 돈화문로5가길 1,영화관/공연장
312,312,예술의 전당,37.4810878,127.0152555,서울특별시 서초구 서초동 700,영화관/공연장
313,313,예지원,37.5514816,127.00255829999999,서울특별시 중구 장충동2가 201-6,영화관/공연장
314,314,올림픽 예술극장 (K-아트홀 태권도공연장),37.52098270000001,127.11609140000002,서울특별시 송파구 방이동 88 올림픽공원 올림픽문화센터 내,영화관/공연장
315,315,용산아트홀,37.532505799999996,126.99011329999999,서울특별시 용산구 이태원동 34-87,영화관/공연장
316,316,유니버설아트센터,37.5500833,127.0877013,서울특별시 광진구 천호대로 664 (능동),영화관/공연장
317,317,유니클로 악스(구 악스코리아),37.5457324,127.1080051,서울특별시 광진구 구천면로 20 (광장동),영화관/공연장
318,318,유시어터,37.522243100000004,127.04127790000001,서울특별시 강남구 청담동 22-13 청담빌딩,영화관/공연장
319,319,이해랑 예술극장,37.55921770000001,126.9985031,서울특별시 중구 필동 3가 26번지,영화관/공연장
320,320,이화여고 100주년 기념관,37.564605799999995,126.9713913,서울특별시 중구 정동 32번지,영화관/공연장
321,321,이화여대 대강당,37.561777299999996,126.9466193,서울특별시 서대문구 이화여대길 52,영화관/공연장
322,322,일지아트홀(구 우림 청담 씨어터),37.5230089,127.04024960000001,서울특별시 강남구 청담2동 86-1번지 I 지하2층,영화관/공연장
323,323,임페리얼 팰리스호텔 두베홀,37.5141005,127.0359818,서울특별시 강남구 논현동 248-7,영화관/공연장
324,324,잠실실내체육관,37.5164915,127.0735976,서울특별시 송파구 잠실1동 10번지,영화관/공연장
325,325,장충체육관,37.5581292,127.00690290000001,서울특별시 중구 장충동2가 200-102,영화관/공연장
326,326,전쟁기념관 평화의광장,37.5362717,126.97704159999999,서울특별시 용산구 용산동 1가 8번지 용산전쟁기념관내,영화관/공연장
327,327,점프 서울전용극장,37.5696849,126.99167479999998,서울특별시 종로구 돈화문로 13 서울극장 5층,영화관/공연장
328,328,정동극장,37.56109050000001,126.99536359999999,서울특별시 중구 퇴계로 212,영화관/공연장
329,329,중앙대학교 아트센터 대극장,37.5048875,126.95737790000001,서울특별시 동작구 흑석로84 중앙대학교 내,영화관/공연장
330,330,진선여고 대강당,37.5017085,127.04757859999998,서울특별시 강남구 역삼2동 713,영화관/공연장
331,331,충무아트홀,37.5659416,126.97285149999999,서울특별시 중구 정동길 43,영화관/공연장
332,332,프라디아(FRADIA),37.5190391,127.00804699999999,서울특별시 서초구 잠원동 121-9,영화관/공연장
333,333,플래툰 쿤스트할레,37.520555,127.0349185,서울특별시 강남구 논현동 97-22,영화관/공연장
334,334,한국문화의 집 코우스,37.5068447,127.06049329999999,서울특별시 강남구 대치동 944-22,영화관/공연장
335,335,한국불교역사문화기념관,37.573899,126.9823254,서울특별시 종로구 견지동 45,영화관/공연장
336,336,해치홀,37.5625106,126.98516869999999,서울특별시 중구 명동2가 31-1 M플라자 5층 서울 글로벌 문화관광센터 內,영화관/공연장
337,337,허리우드극장,37.5725838,126.9878031,서울특별시 종로구 낙원동 284-6 낙원상가4층,영화관/공연장
338,338,현대·기아자동차 아트홀,37.464364,127.042859,서울특별시 서초구 양재동 231 (헌릉로 12),영화관/공연장
339,339,호암아트홀,37.5615747,126.97106720000001,서울특별시 중구 순화동 7 중앙일보사 건물 호암 아트홀,영화관/공연장
340,340,홍대 비보이 전용극장,37.5535113,126.92675190000001,서울특별시 마포구 와우산로 121 삼진제약BD 지하1층,영화관/공연장
341,341,홍대앞 김대범 소극장,37.5534989,126.92643319999999,서울특별시 마포구 와우산로 117 이지플러스 오피스텔 지하1층,영화관/공연장
342,342,2001아울렛중계점,37.6412768,127.0678895,서울특별시 노원구 동일로204가길 46,수퍼마켓·일용품 등의 도매·소매시장
343,343,2441아울렛천호점,37.541349,127.125782,서울특별시 강동구 구천면로 189,수퍼마켓·일용품 등의 도매·소매시장
344,344,ABC마트,37.5631868,126.98445509999999,서울특별시 중구 명동8길  12,수퍼마켓·일용품 등의 도매·소매시장
345,345,G 마트,37.5509804,127.13956540000001,서울특별시 강동구 구천면로 365-8,수퍼마켓·일용품 등의 도매·소매시장
346,346,GS 슈퍼마켓,37.548108899999995,127.1349305,서울특별시 강동구 구천면로  317,수퍼마켓·일용품 등의 도매·소매시장
347,347,GS슈퍼마트,37.56796470000001,126.81003840000001,서울특별시 강서구 초원로  37,수퍼마켓·일용품 등의 도매·소매시장
348,348,GS슈퍼상계점,37.664194200000004,127.0658291,서울특별시 노원구 한글비석로 471,수퍼마켓·일용품 등의 도매·소매시장
349,349,HK마트,37.5767364,127.05714099999999,서울특별시 동대문구 사가정로 104,수퍼마켓·일용품 등의 도매·소매시장
350,350,LG베스트,37.599282099999996,127.0347221,서울특별시 성북구 종암로 102,수퍼마켓·일용품 등의 도매·소매시장
351,351,LG베스트샵,37.601245,126.9245912,서울특별시 은평구 은평로 153,수퍼마켓·일용품 등의 도매·소매시장
352,352,LG전자,37.5299298,127.1207449,서울특별시 강동구 올림픽로 542,수퍼마켓·일용품 등의 도매·소매시장
353,353,LG프라자,37.4948946,127.1237467,서울특별시 송파구 중대로 142,수퍼마켓·일용품 등의 도매·소매시장
354,354,LG하이프라자,37.5388294,127.0556655,서울특별시 성동구 뚝섬로  403,수퍼마켓·일용품 등의 도매·소매시장
355,355,NC백화점,37.55993370000001,126.8405133,서울특별시 강서구 강서로56길 17,수퍼마켓·일용품 등의 도매·소매시장
356,356,SM마트창동점,37.6430031,127.0374676,서울특별시 도봉구 덕릉로63가길 60,수퍼마켓·일용품 등의 도매·소매시장
357,357,W-MALL,37.4773527,126.88771840000001,서울특별시 금천구 디지털로 188,수퍼마켓·일용품 등의 도매·소매시장
358,358,가든파이브 NC백화점(LIFE관),37.4776846,127.1249925,서울특별시 송파구 충민로 66,수퍼마켓·일용품 등의 도매·소매시장
359,359,강서농수산물도매시장,37.553503899999995,126.820806,서울특별시 강서구 발산로  40,수퍼마켓·일용품 등의 도매·소매시장
360,360,강서농협하나로마트,37.576777299999996,126.8118723,서울특별시 강서구 금낭화로 287-10,수퍼마켓·일용품 등의 도매·소매시장
361,361,갤러리아백화점WEST,37.5284803,127.0400742,서울특별시 강남구 압구정로 343,수퍼마켓·일용품 등의 도매·소매시장
362,362,관악농협(금천점),37.450796200000006,126.9102489,서울특별시 금천구 탑골로  2,수퍼마켓·일용품 등의 도매·소매시장
363,363,관악프라자,37.483625,126.9552125,서울특별시 관악구 관악로  212,수퍼마켓·일용품 등의 도매·소매시장
364,364,광희시장,37.558949299999995,127.0092626,서울특별시 중구 동호로20길  24,수퍼마켓·일용품 등의 도매·소매시장
365,365,국민마트,37.6434849,127.01645819999999,서울특별시 강북구 삼양로 450,수퍼마켓·일용품 등의 도매·소매시장
366,366,그랜드마트,37.56018510000001,126.839298,서울특별시 강서구 강서로  388,수퍼마켓·일용품 등의 도매·소매시장
367,367,꿈꾸는청년가게,37.561918,126.9867969,서울특별시 중구 명동8가길 31,수퍼마켓·일용품 등의 도매·소매시장
368,368,농협관악농산물백화점,37.4800727,126.9028666,서울특별시 관악구 남부순환로 1369,수퍼마켓·일용품 등의 도매·소매시장
369,369,농협하나로마트,37.6059513,127.09566909999998,서울특별시 중랑구 신내로  74,수퍼마켓·일용품 등의 도매·소매시장
370,370,더브러마트,37.66066370000001,127.02437749999999,서울특별시 도봉구 방학로15길 19,수퍼마켓·일용품 등의 도매·소매시장
371,371,도림시장,37.5099223,126.8984578,서울특별시 영등포구 도영로 50,수퍼마켓·일용품 등의 도매·소매시장
372,372,독산동 하이마트,37.467890600000004,126.897208,서울특별시 금천구 시흥대로  385,수퍼마켓·일용품 등의 도매·소매시장
373,373,두리마트,37.613557,127.07526100000001,서울특별시 중랑구 중랑역로 225,수퍼마켓·일용품 등의 도매·소매시장
374,374,디지털프라자,37.6357032,127.0338335,서울특별시 강북구 한천로 960,수퍼마켓·일용품 등의 도매·소매시장
375,375,럭키마트,37.6311251,127.01617150000001,서울특별시 강북구 삼양로79길 24-17,수퍼마켓·일용품 등의 도매·소매시장
376,376,럭키할인마트,37.6557362,127.04354840000002,서울특별시 도봉구 해등로16길   63,수퍼마켓·일용품 등의 도매·소매시장
377,377,로데오,37.517464600000004,126.8964926,서울특별시 영등포구 당산로   34,수퍼마켓·일용품 등의 도매·소매시장
378,378,롯데마이수퍼,37.476157,126.97907409999999,서울특별시 관악구 남부순환로 2074,수퍼마켓·일용품 등의 도매·소매시장
379,379,롯데마이슈퍼,37.6087292,127.0191555,서울특별시 성북구 길음로13길 24,수퍼마켓·일용품 등의 도매·소매시장
380,380,롯데마트,37.498315999999996,126.87275349999999,서울특별시 구로구 경인로 482,수퍼마켓·일용품 등의 도매·소매시장
381,381,롯데마트 송파점,37.4917789,127.11788100000001,서울특별시 송파구 중대로 80,수퍼마켓·일용품 등의 도매·소매시장
382,382,롯데마트999,37.646412299999994,127.03716399999999,서울특별시 도봉구 도봉로110길  65,수퍼마켓·일용품 등의 도매·소매시장
383,383,롯데백화점 강남점,37.497040999999996,127.05321529999999,서울특별시 강남구 도곡로 401,수퍼마켓·일용품 등의 도매·소매시장
384,384,롯데백화점 관악점,37.4904955,126.92497990000001,서울특별시 관악구 봉천로  209,수퍼마켓·일용품 등의 도매·소매시장
385,385,롯데백화점 미아점,37.61459470000001,127.0305364,서울특별시 강북구 도봉로 62,수퍼마켓·일용품 등의 도매·소매시장
386,386,롯데슈퍼,37.491830799999995,127.0252409,서울특별시 서초구 사임당로 143,수퍼마켓·일용품 등의 도매·소매시장
387,387,롯데시네마 신림,37.4838632,126.930252,서울특별시 관악구 신림로  330,수퍼마켓·일용품 등의 도매·소매시장
388,388,롯데호텔및백화점,37.5686997,127.01192649999999,서울특별시 중구 마장로1길 21,수퍼마켓·일용품 등의 도매·소매시장
389,389,르네상스복합쇼핑몰,37.484779100000004,126.9300949,서울특별시 관악구 신림로  340,수퍼마켓·일용품 등의 도매·소매시장
390,390,마리오아울렛3,37.47842,126.88502920000002,서울특별시 금천구 벚꽃로  266,수퍼마켓·일용품 등의 도매·소매시장
391,391,마축일축산물시장,37.5706821,127.04129609999998,서울특별시 성동구 마장로35길  68,수퍼마켓·일용품 등의 도매·소매시장
392,392,마포농수산물시장,37.5651843,126.8984946,서울특별시 마포구 월드컵로  235,수퍼마켓·일용품 등의 도매·소매시장
393,393,메르체쇼핑몰,37.559004200000004,126.9451739,서울특별시 서대문구 이화여대길 59,수퍼마켓·일용품 등의 도매·소매시장
394,394,명성마트,37.547782899999994,127.14512279999998,서울특별시 강동구 양재대로134길 27,수퍼마켓·일용품 등의 도매·소매시장
395,395,모닝마트,37.47285770000001,126.90092079999998,서울특별시 금천구 독산로85길 40,수퍼마켓·일용품 등의 도매·소매시장
396,396,북부농협<마트>,37.6572811,127.0383987,서울특별시 도봉구 해등로  166,수퍼마켓·일용품 등의 도매·소매시장
397,397,빅마켓(롯데마트 영등포점),37.5278142,126.90469420000001,서울특별시 영등포구 영중로  125,수퍼마켓·일용품 등의 도매·소매시장
398,398,빅마켓(롯데마트금천점),37.47063660000001,126.8956535,서울특별시 금천구 두산로 71,수퍼마켓·일용품 등의 도매·소매시장
399,399,빅마켓(롯데마트도봉점),37.667617,127.0455413,서울특별시 도봉구 마들로 645,수퍼마켓·일용품 등의 도매·소매시장
400,400,삼부마켓,37.595723,126.91351499999999,서울특별시 은평구 증산로21길 11,수퍼마켓·일용품 등의 도매·소매시장
401,401,삼성 디지털 프라자,37.4925967,127.0404375,서울특별시 강남구 도곡로 193,수퍼마켓·일용품 등의 도매·소매시장
402,402,삼성디지털프라자,37.60121270000001,126.92440690000001,서울특별시 은평구 은평로  151,수퍼마켓·일용품 등의 도매·소매시장
403,403,삼성전자디지털,37.4883648,127.0286153,서울특별시 서초구 효령로  410,수퍼마켓·일용품 등의 도매·소매시장
404,404,성내동 하이마트,37.5314749,127.13718329999999,서울특별시 강동구 양재대로 1403,수퍼마켓·일용품 등의 도매·소매시장
405,405,성내슈퍼마트,37.5338992,127.1238495,서울특별시 강동구 천호옛길  54-1,수퍼마켓·일용품 등의 도매·소매시장
406,406,세계로마트,37.6553815,127.03656609999999,서울특별시 도봉구 도봉로125길   61,수퍼마켓·일용품 등의 도매·소매시장
407,407,세계로마트(세움테크사옥),37.575759999999995,126.8957476,서울특별시 마포구 월드컵북로 328,수퍼마켓·일용품 등의 도매·소매시장
408,408,수유시장,37.63072879999999,127.02269380000001,서울특별시 강북구 도봉로67길 18,수퍼마켓·일용품 등의 도매·소매시장
409,409,슈퍼마켓,37.5031776,126.9358108,서울특별시 동작구 상도로 147,수퍼마켓·일용품 등의 도매·소매시장
410,410,신도림테크노마트,37.50704879999999,126.89024599999999,서울특별시 구로구 새말로 97,수퍼마켓·일용품 등의 도매·소매시장
411,411,신세계백화점 영등포점,37.51718620000001,126.905592,서울특별시 영등포구 영중로 9,수퍼마켓·일용품 등의 도매·소매시장
412,412,썬프라자,37.49639370000001,126.90808670000001,서울특별시 영등포구 신길로 41,수퍼마켓·일용품 등의 도매·소매시장
413,413,아웃렛마트,37.4606245,126.9062121,서울특별시 금천구 독산로40길  29,수퍼마켓·일용품 등의 도매·소매시장
414,414,아이마트,37.62437360000001,127.0599382,서울특별시 노원구 광운로 79,수퍼마켓·일용품 등의 도매·소매시장
415,415,아이파크몰,37.52987020000001,126.96487590000001,서울특별시 용산구 한강대로23길 55,수퍼마켓·일용품 등의 도매·소매시장
416,416,압구정갤러리아백화점EAST,37.5279152,127.0418419,서울특별시 강남구 압구정로 407,수퍼마켓·일용품 등의 도매·소매시장
417,417,엠코중앙마트,37.4974068,126.95142079999998,서울특별시 동작구 상도로62길 81-1,수퍼마켓·일용품 등의 도매·소매시장
418,418,역삼종합시장,37.493009,127.0391373,서울특별시 강남구 논현로63길 16,수퍼마켓·일용품 등의 도매·소매시장
419,419,올슈퍼,37.446546999999995,126.9006584,서울특별시 금천구 시흥대로39길  45,수퍼마켓·일용품 등의 도매·소매시장
420,420,와우쇼핑몰,37.6554297,127.06388999999999,서울특별시 노원구 노해로 507,수퍼마켓·일용품 등의 도매·소매시장
421,421,월드할인마트,37.60297050000001,126.9189818,서울특별시 은평구 진흥로1길 28,수퍼마켓·일용품 등의 도매·소매시장
422,422,이마트 공항점,37.5609162,126.7979123,서울특별시 강서구 하늘길 76,수퍼마켓·일용품 등의 도매·소매시장
423,423,이마트 마포공덕점,37.542398,126.95345379999999,서울특별시 마포구 백범로 212,수퍼마켓·일용품 등의 도매·소매시장
424,424,이마트 묵동점,37.6138355,127.0775187,서울특별시 중랑구 동일로 932,수퍼마켓·일용품 등의 도매·소매시장
425,425,이마트 상봉점,37.5964905,127.09361799999999,서울특별시 중랑구 상봉로 118,수퍼마켓·일용품 등의 도매·소매시장
426,426,이마트 성수점,37.539935299999996,127.05352179999998,서울특별시 성동구 뚝섬로 379,수퍼마켓·일용품 등의 도매·소매시장
427,427,이마트 월계점,37.62690070000001,127.061334,서울특별시 노원구 마들로3길 15,수퍼마켓·일용품 등의 도매·소매시장
428,428,이마트 은평점,37.6008414,126.92053419999999,서울특별시 은평구 은평로 111,수퍼마켓·일용품 등의 도매·소매시장
429,429,이마트 창동점,37.6516448,127.04673259999998,서울특별시 도봉구 노해로65길  4,수퍼마켓·일용품 등의 도매·소매시장
430,430,이마트(구로점),37.4844044,126.8979251,서울특별시 구로구 디지털로32길 43,수퍼마켓·일용품 등의 도매·소매시장
431,431,이마트에브리데이 암사동점,37.554951,127.1362748,서울특별시 강동구 고덕로 99,수퍼마켓·일용품 등의 도매·소매시장
432,432,이마트에브리데이 창동점,37.643343,127.0350449,서울특별시 도봉구 도봉로104길 53,수퍼마켓·일용품 등의 도매·소매시장
433,433,청다담마트,37.4570348,126.90529070000001,서울특별시 금천구 독산로  109,수퍼마켓·일용품 등의 도매·소매시장
434,434,코스트코,37.5969033,127.090322,서울특별시 중랑구 망우로 336,수퍼마켓·일용품 등의 도매·소매시장
435,435,킴스마트(현:이마트 에브리데이),37.628150700000006,127.04023219999999,서울특별시 강북구 오현로32길 18,수퍼마켓·일용품 등의 도매·소매시장
436,436,토우마트2단지,37.570354200000004,127.0413866,서울특별시 성동구 마장로37길  53-14,수퍼마켓·일용품 등의 도매·소매시장
437,437,푸른솔마트,37.5720052,126.80771840000001,서울특별시 강서구 양천로6길 15,수퍼마켓·일용품 등의 도매·소매시장
438,438,하나로마트,37.50666810000001,126.9622064,서울특별시 동작구 서달로 150,수퍼마켓·일용품 등의 도매·소매시장
439,439,하모니마트,37.582216700000004,127.09091550000001,서울특별시 중랑구 면목로48길  39,수퍼마켓·일용품 등의 도매·소매시장
440,440,하이마트,37.5764757,127.03864469999999,서울특별시 동대문구 고산자로 414,수퍼마켓·일용품 등의 도매·소매시장
441,441,하이마트 구로점,37.4966085,126.89080279999999,서울특별시 구로구 가마산로 277,수퍼마켓·일용품 등의 도매·소매시장
442,442,하이마트 독산점,37.4623485,126.8981065,서울특별시 금천구 시흥대로 322,수퍼마켓·일용품 등의 도매·소매시장
443,443,하이마트 발산점,37.5587527,126.8392643,서울특별시 강서구 공항대로 283,수퍼마켓·일용품 등의 도매·소매시장
444,444,하이마트 상암동,37.573569,126.8979318,서울특별시 마포구 월드컵북로  295,수퍼마켓·일용품 등의 도매·소매시장
445,445,하이마트공릉점,37.6272965,127.07177549999999,서울특별시 노원구 동일로 1091,수퍼마켓·일용품 등의 도매·소매시장
446,446,하이마트빌딩,37.4834528,126.98159109999999,서울특별시 동작구 동작대로 77,수퍼마켓·일용품 등의 도매·소매시장
447,447,하이마트상계점,37.6749285,127.0549116,서울특별시 노원구 동일로 1641,수퍼마켓·일용품 등의 도매·소매시장
448,448,하이마트서초점,37.4939628,127.0131382,서울특별시 서초구 서초대로  289,수퍼마켓·일용품 등의 도매·소매시장
449,449,현대백화점,37.5560866,126.9358496,서울특별시 서대문구 신촌로 83,수퍼마켓·일용품 등의 도매·소매시장
450,450,현대백화점 압구정점,37.5273658,127.0274617,서울특별시 강남구 압구정로 165,수퍼마켓·일용품 등의 도매·소매시장
451,451,현대백화점U-PLEX,37.5567412,126.9365645,서울특별시 서대문구 연세로 13,수퍼마켓·일용품 등의 도매·소매시장
452,452,홈플러스 가양점,37.5642865,126.84995420000001,서울특별시 강서구 양천로  431,수퍼마켓·일용품 등의 도매·소매시장
453,453,홈플러스 강서점,37.558476399999996,126.85481100000001,서울특별시 강서구 화곡로  398,수퍼마켓·일용품 등의 도매·소매시장
454,454,홈플러스 금천점,37.4686645,126.8968827,서울특별시 금천구 시흥대로 391,수퍼마켓·일용품 등의 도매·소매시장
455,455,홈플러스 동대문점,37.57456129999999,127.038873,서울특별시 동대문구 천호대로 133,수퍼마켓·일용품 등의 도매·소매시장
456,456,홈플러스 목동점,37.5302268,126.8733084,서울특별시 양천구 목동서로 170,수퍼마켓·일용품 등의 도매·소매시장
457,457,홈플러스 문래점,37.5182193,126.8958098,서울특별시 영등포구 당산로  42,수퍼마켓·일용품 등의 도매·소매시장
458,458,홈플러스 방학점,37.664891499999996,127.043577,서울특별시 도봉구 도봉로 678,수퍼마켓·일용품 등의 도매·소매시장
459,459,홈플러스 시흥점,37.4518936,126.9007885,서울특별시 금천구 시흥대로 201,수퍼마켓·일용품 등의 도매·소매시장
460,460,홈플러스 신내점,37.61582979999999,127.09373259999998,서울특별시 중랑구 신내로  201,수퍼마켓·일용품 등의 도매·소매시장
461,461,홈플러스 월곡점,37.60180310000001,127.04046740000001,서울특별시 성북구 화랑로 76,수퍼마켓·일용품 등의 도매·소매시장
462,462,홈플러스 중계점,37.6399096,127.0686298,서울특별시 노원구 동일로204가길 12,수퍼마켓·일용품 등의 도매·소매시장
463,463,강서구2-1공영주차장,37.5360601,126.85243909999998,서울특별시 강서구 강서로18아길 26-15,주차장
464,464,공덕1-1공영주차장,37.547310100000004,126.96095659999999,서울특별시 마포구 효창목길 31,주차장
465,465,공용주차장,37.4922814,127.15035619999999,서울특별시 송파구 오금로68길 8,주차장
466,466,까치산공영주차장,37.4797826,126.9604835,서울특별시 관악구 행운4길 21,주차장
467,467,남가좌2동 제1공영주차장,37.577020399999995,126.92178159999999,서울특별시 서대문구 가재울로14길 22,주차장
468,468,대림2동 공영주차장,37.4916125,126.89994899999999,서울특별시 영등포구 디지털로37나길 21,주차장
469,469,대림어린이공원 지하주차장,37.4913501,126.9030298,서울특별시 영등포구 대림로  106,주차장
470,470,도깨비시장공영주차장,37.6645281,127.03400819999999,서울특별시 도봉구 방학로10길 51,주차장
471,471,도선공영주차장,37.5655058,127.0315039,서울특별시 성동구 무학로8길  8,주차장
472,472,독산1동 공영주차장,37.464964200000004,126.8947683,서울특별시 금천구 범안로12가길 65,주차장
473,473,독산3동 공영주차장,37.4795047,126.906353,서울특별시 금천구 독산로108길 44,주차장
474,474,동산공영주차장,37.55630900000001,127.01600390000002,서울특별시 중구 다산로24가길 23,주차장
475,475,등촌동공영주차장,37.5498061,126.8613244,서울특별시 강서구 등촌로55길  33-16,주차장
476,476,마천동 공영주차장1,37.4952891,127.15556129999999,서울특별시 송파구 성내천로43길 6,주차장
477,477,망원1-1공영주차장,37.5561427,126.8999882,서울특별시 마포구 망원로 28,주차장
478,478,망원2-1공영주차장,37.5577488,126.90125640000001,서울특별시 마포구 망원로3길 24,주차장
479,479,면목2동공영주차장,37.5879445,127.08090890000001,서울특별시 중랑구 겸재로23길 27,주차장
480,480,면목3.8동공영주차장,37.5898293,127.09643529999998,서울특별시 중랑구 겸재로64길 9,주차장
481,481,면목5동공영주차장,37.583191799999994,127.0801395,서울특별시 중랑구 동일로 594,주차장
482,482,버티공영주차장,37.5490732,127.00630890000002,서울특별시 중구 동호로17길 270,주차장
483,483,볏골공원 지하공영주차장(볏골공원화장실에서 변경),37.54179,126.844327,서울특별시 강서구 까치산로4길  22,공중화장실
484,484,북아현동 제2공영주차장,37.56006179999999,126.95830690000001,서울특별시 서대문구 북아현로6길 60,주차장
485,485,삼성 공영주차장,37.45458789999999,126.90903759999999,서울특별시 금천구 독산로24마길 30,주차장
486,486,상암1공영주차장,37.5773151,126.8971706,서울특별시 마포구 성암로 197,주차장
487,487,서계공영주차장,37.5516492,126.9643893,서울특별시 용산구 효창원로104가길 16,주차장
488,488,서인사마당 공영주차장,37.573689200000004,126.98360339999999,서울특별시 종로구 인사동11길  19,주차장
489,489,서초3동공영주차장,37.49054879999999,127.00895290000001,서울특별시 서초구 반포대로28길  7,주차장
490,490,성산2-1공영주차장,37.56483370000001,126.90669109999999,서울특별시 마포구 모래내로 31,주차장
491,491,손기정체육공원 주차장,37.5569261,126.96636869999999,서울특별시 중구 손기정로  101,주차장
492,492,송파동 공영주차장,37.50702800000001,127.11336740000002,서울특별시 송파구 백제고분로44길 13-25,주차장
493,493,시흥3동 공영주차장,37.4430093,126.90582979999999,서울특별시 금천구 시흥대로34길 20,주차장
494,494,시흥4동 공영주차장,37.4596985,126.90861869999999,서울특별시 금천구 독산로36나길 21,주차장
495,495,신당2동공영주차장,37.5543576,127.00858429999998,서울특별시 중구 동호로15길 60,주차장
496,496,신당6동공영주차장,37.5613844,127.01902949999999,서울특별시 중구 다산로36가길 13,주차장
497,497,신당사거리공영주차장,37.5651312,127.017016,서울특별시 중구 퇴계로 408,주차장
498,498,신창동 공영주차장,37.5352858,126.95521799999999,서울특별시 용산구 원효로35길  53,주차장
499,499,암사1동공영주차장(암사4동 공영주차장),37.5526841,127.1380091,서울특별시 강동구 고덕로28길 36,주차장
500,500,연희동 제4공영주차장,37.57084329999999,126.92271090000001,서울특별시 서대문구 홍제천로 54-19,주차장
501,501,연희동 제5공영주차장,37.5710271,126.9229301,서울특별시 서대문구 홍제천로2길 83,주차장
502,502,연희동 제6공영주차장,37.5749547,126.928001,서울특별시 서대문구 홍연길 16,주차장
503,503,용산2가동 공영주차장,37.546079299999995,126.98558340000001,서울특별시 용산구 신흥로 90,주차장
504,504,원신공영주차장,37.4701269,126.92928559999999,서울특별시 관악구 양지길 63,주차장
505,505,은행나무공영주차장,37.58704270000001,127.0915223,서울특별시 중랑구 겸재로54가길 4,주차장
506,506,장충공영주차장,37.5599718,127.00133090000001,서울특별시 중구 퇴계로50길 59,주차장
507,507,조원동공영주차장,37.4810827,126.9057145,서울특별시 관악구 조원중앙로2길 19,주차장
508,508,창2동4공영주차장,37.6402939,127.0353759,서울특별시 도봉구 덕릉로59차길 37,주차장
509,509,천호3동 노외 공영주차장,37.540096500000004,127.12811040000001,서울특별시 강동구 진황도로2길 34,주차장
510,510,충현동 제1공영주차장,37.565104,126.96453659999999,서울특별시 서대문구 경기대로 72,주차장
511,511,충현동 제2공영주차장,37.5628854,126.9567933,서울특별시 서대문구 북아현로14길 24,주차장
512,512,충현어린이공영주차장,37.552119899999994,127.0052382,서울특별시 중구 동호로11차길 1,주차장
513,513,필동공영주차장,37.5565979,126.99588440000001,서울특별시 중구 필동로 55,주차장
514,514,홍은1동 제4공영주차장,37.6015614,126.94914820000001,서울특별시 서대문구 홍은중앙로 125,주차장
515,515,홍은2동 제1공영주차장,37.5789391,126.92564840000001,서울특별시 서대문구 증가로10길 60-23,주차장
516,516,홍은2동 제2공영주차장,37.5875726,126.9319203,서울특별시 서대문구 연희로39나길 25,주차장
517,517,홍은2동 제3공영주차장,37.5866921,126.93417579999999,서울특별시 서대문구 연희로39길 12,주차장
518,518,홍제1동 제2공영주차장,37.584115000000004,126.9462017,서울특별시 서대문구 모래내로28안길 39,주차장
519,519,화곡1-1공영주차장,37.531446100000004,126.8398895,서울특별시 강서구 곰달래로15길  28,주차장
520,520,화곡7-1공영주차장,37.5360375,126.8391765,서울특별시 강서구 월정로32길 68,주차장
521,521,화곡8-2주택가공영주차장,37.537681,126.85036670000001,서울특별시 강서구 초록마을로  126,주차장
522,522,화곡본-1지구공영주차장,37.539759600000004,126.849791,서울특별시 강서구 초록마을로26길  48,주차장
523,523,화곡본-2주택가(공영주차장),37.5443078,126.84845729999999,서울특별시 강서구 초록마을로5길 43,주차장
524,524,갈곡리어린이공원 화장실,37.6239024,126.9166598,서울특별시 은평구 갈현로41길  3,공중화장실
525,525,개롱공원 공중화장실,37.4934599,127.13005890000001,서울특별시 송파구 동남로 178,공중화장실
526,526,곰돌이공원화장실(단지내),37.5622715,126.8570219,서울특별시 강서구 허준로 176,공중화장실
527,527,공중화장실,37.4737845,126.9004226,서울특별시 금천구 시흥대로144길 17,공중화장실
528,528,공중화장실 14호,37.49634260000001,126.8244435,서울특별시 구로구 부일로9길 90-2,공중화장실
529,529,공중화장실 23호,37.5040744,126.8527845,서울특별시 구로구 고척로45길 1,공중화장실
530,530,공중화장실(대방역),37.512858,126.9260565,서울특별시 영등포구 노량진로  7,공중화장실
531,531,공중화장실(여의도공원),37.5295815,126.9266321,서울특별시 영등포구 여의공원로  120,공중화장실
532,532,공중화장실24호,37.4899799,126.85289070000002,서울특별시 구로구 개봉로15길 58-2,공중화장실
533,533,공중화장실5호,37.4870571,126.88624109999998,서울특별시 구로구 구로동로8길 27,공중화장실
534,534,공중화장실6호,37.4883092,126.8809088,서울특별시 구로구 구로동로17길 66,공중화장실
535,535,공항동 화장실(성당옆공원),37.5562315,126.8120999,서울특별시 강서구 송정로 9,공중화장실
536,536,광장시장 공중화장실,37.5701745,127.0012544,서울특별시 종로구 종로32길 19,공중화장실
537,537,광희동1가시범공중화장실,37.5643713,127.0063064,서울특별시 중구 마른내로  166,공중화장실
538,538,까치산공원화장실-(새길상세주소누락),37.540975,126.8424756,서울특별시 강서구 까치산로2길 1,공중화장실
539,539,꽃동네공원화장실(단지내),37.5704364,126.84724469999999,서울특별시 강서구 허준로 47,공중화장실
540,540,나들이공원화장실(단지내),37.571579,126.84528130000001,서울특별시 강서구 허준로 23,공중화장실
541,541,대방동공중화장실,37.4979941,126.92201850000001,서울특별시 동작구 여의대방로24길 29,공중화장실
542,542,도화소공원공중화장실,37.541049,126.9453594,서울특별시 마포구 토정로37길 22,공중화장실
543,543,동명근린공원 공중화장실,37.560550899999996,127.16381990000001,서울특별시 강동구 아리수로78길 43-1,공중화장실
544,544,동묘공원 공중화장실,37.572815999999996,127.0184433,서울특별시 종로구 난계로27길 84,공중화장실
545,545,면목5동공중화장실,37.59368170000001,127.0917145,서울특별시 중랑구 봉우재로 168-1,공중화장실
546,546,목련공원화장실,37.4990849,127.13886770000002,서울특별시 송파구 동남로24길 25,공중화장실
547,547,무궁화공원화장실,37.541621899999996,126.8427358,서울특별시 강서구 까치산로 18,공중화장실
548,548,무지개공원화장실(단지내),37.565272799999995,126.85199159999999,서울특별시 강서구 양천로57길 37,공중화장실
549,549,방화근린공원화장실(관리사무실),37.5809902,126.8141648,서울특별시 강서구 금낭화로  176,공중화장실
550,550,방화제2화장실,37.56367150000001,126.80840729999998,서울특별시 강서구 개화동로29길  28-1,공중화장실
551,551,백토공원화장실,37.5081146,127.13213470000001,서울특별시 송파구 양재대로72길 47-8,공중화장실
552,552,봉원공용화장실,37.5707186,126.9461973,서울특별시 서대문구 봉원사길 101-18,공중화장실
553,553,비둘기공원화장실(단지내),37.5598505,126.8624406,서울특별시 강서구 허준로 224,공중화장실
554,554,사자암공중화장실,37.492748799999994,126.9371652,서울특별시 동작구 국사봉1길 235-14,공중화장실
555,555,사직공원 공중화장실,37.5756566,126.96766640000001,서울특별시 종로구 사직로 89,공중화장실
556,556,삼청공원 공중화장실,37.5879947,126.98410159999999,서울특별시 종로구 북촌로 134-3,공중화장실
557,557,상도1동공중화장실,37.5038821,126.95021840000001,서울특별시 동작구 상도로41가길 19,공중화장실
558,558,새락골어린이공원화장실,37.5989713,126.9113348,서울특별시 은평구 은평로3가길 34,공중화장실
559,559,새록어린이공원화장실,37.60395250000001,126.92389209999999,서울특별시 은평구 은평로13길  35,공중화장실
560,560,서낭당근린공원화장실(관리사무실),37.5588806,126.8499866,서울특별시 강서구 공항대로43길 46,공중화장실
561,561,시범공중화장실,37.623019299999996,126.9358996,서울특별시 은평구 불광로18길  43,공중화장실
562,562,시흥4동시범공중화장실,37.4629848,126.9071213,서울특별시 금천구 독산로54길 6,공중화장실
563,563,신원시장 공중화장실,37.4820859,126.92739089999999,서울특별시 관악구 신원로3길  20-3,공중화장실
564,564,신흥어린이공원 공중화장실,37.5959645,126.9119679,서울특별시 은평구 증산로21길  25,공중화장실
565,565,아름공원화장실(동양고옆공원),37.5687999,126.8470975,서울특별시 강서구 허준로 50,공중화장실
566,566,어린이대공원후문공중화장실,37.5498987,127.0809212,서울특별시 광진구 능동로 216,공중화장실
567,567,역말공원화장실,37.606927,126.9142745,서울특별시 은평구 갈현로14길 32,공중화장실
568,568,연서공원화장실,37.604146,126.9166759,서울특별시 은평구 연서로6길 8-1,공중화장실
569,569,연화공원화장실,37.4855016,127.12903030000001,서울특별시 송파구 새말로15길 17-5,공중화장실
570,570,오금공원인라인장화장실,37.5052003,127.13167390000001,서울특별시 송파구 오금로 363,공중화장실
571,571,을지로7가시범공중화장실,37.5656185,127.00825459999999,서울특별시 중구 장충단로 228-15,공중화장실
572,572,응암어린이공원 화장실,37.6017347,126.92355330000001,서울특별시 은평구 은평로11길 10,공중화장실
573,573,장미공원화장실,37.5568468,126.81375200000001,서울특별시 강서구 방화대로7다길 35-18,공중화장실
574,574,장위3동공중화장실,37.6206325,127.05249750000002,서울특별시 성북구 한천로97길 8-14,공중화장실
575,575,좌월어린이공원 화장실,37.61716550000001,126.91314560000001,서울특별시 은평구 갈현로25길 11-8,공중화장실
576,576,초안산공중화장실,37.6474615,127.04149040000001,서울특별시 도봉구 해등로3길  48-11,공중화장실
577,577,21세기병원,37.48526470000001,127.0156815,서울특별시 서초구 서초중앙로  39,종합병원
578,578,A+ 치과병원,37.527247100000004,127.0339057,서울특별시 강남구 언주로 860,종합병원
579,579,BMC한방병원,37.5462952,126.84549960000001,서울특별시 강서구 화곡로 238,종합병원
580,580,GS항외과의원,37.484984499999996,126.93631599999999,서울특별시 관악구 남부순환로 1669,종합병원
581,581,HL의원(선기빌딩),37.5115965,127.0323017,서울특별시 강남구 논현로 648,종합병원
582,582,KS병원,37.5093123,127.0439585,서울특별시 강남구 선릉로 571,종합병원
583,583,MD병원,37.5262501,127.0404523,서울특별시 강남구 선릉로 832,종합병원
584,584,MVP성형외과,37.521642799999995,127.02789879999999,서울특별시 강남구 논현로 819,종합병원
585,585,SMC서울메디칼센터(의원),37.56687720000001,126.90985590000001,서울특별시 마포구 월드컵북로  165,종합병원
586,586,W병원,37.484233700000004,126.9329375,서울특별시 관악구 남부순환로  1640,종합병원
587,587,가화정신병원,37.6628181,127.0344193,서울특별시 도봉구 도당로  51,종합병원
588,588,강남경희한방병원,37.4992831,127.06761840000001,서울특별시 강남구 영동대로 225,종합병원
589,589,강남성심병원,37.492878600000004,126.9087598,서울특별시 영등포구 신길로 1,종합병원
590,590,강남성심병원별관,37.4943419,126.9082723,서울특별시 영등포구 신길로 19-2,종합병원
591,591,강남세브란스,37.492779799999994,127.04630929999999,서울특별시 강남구 언주로 211,종합병원
592,592,강남센트럴요양병원,37.4884511,127.1029949,서울특별시 강남구 광평로51길 6-9,종합병원
593,593,강남요양병원,37.499390500000004,127.0120913,서울특별시 서초구 서초중앙로 197,종합병원
594,594,강남을지병원,37.5193962,127.0286482,서울특별시 강남구 도산대로 202,종합병원
595,595,강남자이 비뇨기과 병원,37.5080115,127.03313999999999,서울특별시 강남구 논현로 609,종합병원
596,596,강남중앙병원,37.481594799999996,126.91170670000001,서울특별시 관악구 남부순환로  1449,종합병원
597,597,강남초이스병원,37.481312100000004,126.9496007,서울특별시 관악구 남부순환로  1796,종합병원
598,598,강남효병원(고암빌딩),37.48305850000001,126.9394003,서울특별시 관악구 남부순환로  1704,종합병원
599,599,강동미즈문화센터소아청소년과,37.5381348,127.12795390000001,서울특별시 강동구 천호대로159길 14,종합병원
600,600,강동미즈여성병원,37.5376224,127.1281183,서울특별시 강동구 천호대로 1043,종합병원
601,601,강동성모병원,37.5341742,127.1393437,서울특별시 강동구 천호대로 1151,종합병원
602,602,강동성모요양병원(별관),37.5343935,127.139595,서울특별시 강동구 진황도로 124,종합병원
603,603,강동성모요양병원(신관),37.5345705,127.1394696,서울특별시 강동구 진황도로  122,종합병원
604,604,강동성심병원,37.5361506,127.1353445,서울특별시 강동구 성안로  150,종합병원
605,605,강동센트럴요양병원,37.551139299999996,127.12845779999999,서울특별시 강동구 올림픽로98길 8,종합병원
606,606,강동연세내과,37.55086420000001,127.1281396,서울특별시 강동구 올림픽로  782,종합병원
607,607,강동연세병원,37.547326,127.12690829999998,서울특별시 강동구 올림픽로 742,종합병원
608,608,강동한방병원,37.544164,127.142799,서울특별시 강동구 양재대로  1554,종합병원
609,609,강북21세기병원,37.6099209,127.07820120000001,서울특별시 중랑구 동일로 890,종합병원
610,610,강북삼성병원 본관,37.5684083,126.96775,서울특별시 종로구 새문안로  29,종합병원
611,611,강북성모병원,37.56613400000001,126.9276737,서울특별시 서대문구 성산로  335,종합병원
612,612,강북예치과병원,37.6541936,127.061435,서울특별시 노원구 노해로 480,종합병원
613,613,강북으뜸내과,37.57471320000001,127.058006,서울특별시 동대문구 전농로 110,종합병원
614,614,강북힘찬병원,37.64566720000001,127.03339869999999,서울특별시 도봉구 도봉로  446,종합병원
615,615,강서성모요양병원,37.5598994,126.8553865,서울특별시 강서구 화곡로  416,종합병원
616,616,강서성심병원(강서사랑요양병원),37.572979499999995,126.80769380000001,서울특별시 강서구 양천로  35,종합병원
617,617,강서솔병원,37.5661315,126.8116212,서울특별시 강서구 금낭화로  9,종합병원
618,618,강서연세병원,37.549314700000004,126.87481969999999,서울특별시 강서구 양천로  712,종합병원
619,619,강서한방병원,37.5299591,126.8388321,서울특별시 강서구 곰달래로  54,종합병원
620,620,강윤빌딩(윤앤송한의원),37.5921768,127.01548600000001,서울특별시 성북구 동소문로  92,종합병원
621,621,건강한세상앞선치과병원,37.5109817,127.0580898,서울특별시 강남구 테헤란로87길 46,종합병원
622,622,건국대학교병원,37.5403764,127.07182759999998,서울특별시 광진구 능동로 120-1,종합병원
623,623,경동요양병원,37.5829554,127.0437795,서울특별시 동대문구 약령시로 124,종합병원
624,624,경찰병원,37.4963836,127.12350900000001,서울특별시 송파구 송이로 123,종합병원
625,625,경희대학교 의과대학동서신의학병원,37.5534484,127.1573794,서울특별시 강동구 동남로 892,종합병원
626,626,경희의원,37.484485600000006,126.97237040000002,서울특별시 동작구 사당로 215,종합병원
627,627,경희인의한의원,37.610939,126.9288505,서울특별시 은평구 통일로67길  3,종합병원
628,628,고려새한병원,37.6151266,127.02960049999999,서울특별시 강북구 도봉로 67,종합병원
629,629,고려수요양병원,37.48003660000001,126.90642350000002,서울특별시 금천구 남부순환로 1400,종합병원
630,630,고운타워(유앤유치과),37.48731420000001,126.9471,서울특별시 관악구 양녕로 58,종합병원
631,631,공안과,37.5339209,127.12603259999999,서울특별시 강동구 풍성로37길 45,종합병원
632,632,관악구보건소,37.4781549,126.95148470000001,서울특별시 관악구 관악로  145,종합병원
633,633,광동한방병원,37.514287,127.06216380000001,서울특별시 강남구 봉은사로 612,종합병원
634,634,광진구 보건소(광진구청제2별관),37.538616999999995,127.082375,서울특별시 광진구 자양로 117,종합병원
635,635,광혜병원,37.5081511,127.0647955,서울특별시 강남구 영동대로86길 9,종합병원
636,636,구로고대병원,37.492052,126.88487009999999,서울특별시 구로구 구로동로 148,종합병원
637,637,구로고대부속병원장례식장,37.4932305,126.88516709999999,서울특별시 구로구 가마산로 218,종합병원
638,638,구로성심병원,37.4996564,126.8663737,서울특별시 구로구 경인로 427,종합병원
639,639,국립의료원,37.5614,126.999275,서울특별시 중구 서애로1길 17,종합병원
640,640,국립재활원,37.6388781,127.0105162,서울특별시 강북구 삼각산로 58,종합병원
641,641,굿조인트병원,37.493239,127.1458933,서울특별시 송파구 오금로 513,종합병원
642,642,기쁨병원(지후빌딩),37.4899239,127.0337463,서울특별시 강남구 도곡로 122,종합병원
643,643,"길동노인요양병원(동화빌딩 4,5층)",37.5340809,127.14093799999999,서울특별시 강동구 천호대로  1165,종합병원
644,644,김&송 유나이티드 성형외과(하늘빌딩),37.4849635,127.0351139,서울특별시 강남구 남부순환로 2609,종합병원
645,645,김성진 정형외과,37.460097999999995,126.90511129999999,서울특별시 금천구 독산로  142,종합병원
646,646,김영수병원(구정빌딩),37.528514799999996,127.0352314,서울특별시 강남구 언주로174길 15,종합병원
647,647,김완호정형외과의원,37.5420459,126.84075109999999,서울특별시 강서구 화곡로 173,종합병원
648,648,김인권 성형외과(유덕빌딩),37.5266565,127.04597659999999,서울특별시 강남구 압구정로 443,종합병원
649,649,김홍일내과,37.4520002,126.9021196,서울특별시 금천구 시흥대로 202,종합병원
650,650,나누리병원,37.537369500000004,126.8367068,서울특별시 강서구 가로공원로  187,종합병원
651,651,낙성대클리닉센터(고려정형외과의원),37.475941,126.9656702,서울특별시 관악구 남부순환로 1952,종합병원
652,652,난곡보건분소,37.4694995,126.92035320000001,서울특별시 관악구 난곡로 162,종합병원
653,653,날개병원,37.58163920000001,127.0295165,서울특별시 동대문구 무학로 193-1,종합병원
654,654,날아라정형외과,37.5941626,127.09968300000001,서울특별시 중랑구 용마산로 484,종합병원
655,655,네모치과의원(신도타워),37.504693100000004,127.04802340000002,서울특별시 강남구 테헤란로 333,종합병원
656,656,노블요양병원,37.5984823,126.92120829999999,서울특별시 은평구 응암로  304,종합병원
657,657,노원보건소,37.654358,127.056473,서울특별시 노원구 노해로 437,종합병원
658,658,노원솔요양병원,37.6591873,127.0756768,서울특별시 노원구 덕릉로 690,종합병원
659,659,노원스마트요양병원,37.65743629999999,127.06564329999999,서울특별시 노원구 노원로 461,종합병원
660,660,노정형외과,37.600322799999994,127.10511699999999,서울특별시 중랑구 망우로 476,종합병원
661,661,녹십초한방병원,37.48840070000001,126.90663020000001,서울특별시 동작구 시흥대로 634,종합병원
662,662,누네안과병원,37.501015100000004,127.0509749,서울특별시 강남구 선릉로 404,종합병원
663,663,뉴강서성심병원,37.573286700000004,126.80882450000001,서울특별시 강서구 양천로 45-5,종합병원
664,664,뉴스타트병원,37.499100899999995,127.1194393,서울특별시 송파구 송이로 76,종합병원
665,665,뉴연세 산후조리원,37.4551778,126.899746,서울특별시 금천구 시흥대로71길 41,종합병원
666,666,뉴타운장례식장,37.6076021,127.03041840000002,서울특별시 성북구 종암로 199,종합병원
667,667,다나병원,37.6550662,127.0404595,서울특별시 도봉구 해등로 129,종합병원
668,668,대림성모병원,37.490701,126.9071757,서울특별시 영등포구 시흥대로 657,종합병원
669,669,대림성모병원 건강검진센터,37.490469299999994,126.90666259999999,서울특별시 영등포구 시흥대로183길 7-8,종합병원
670,670,대한병원,37.635477,127.02270190000002,서울특별시 강북구 도봉로 301,종합병원
671,671,대항병원,37.4757993,126.9877259,서울특별시 서초구 남부순환로 2151,종합병원
672,672,더 조은병원,37.5149034,127.03001370000001,서울특별시 강남구 논현로 705,종합병원
673,673,더본정형외과,37.4825638,126.98147970000001,서울특별시 동작구 동작대로 67,종합병원
674,674,더와이즈황병원,37.5420744,126.8428935,서울특별시 강서구 까치산로 23,종합병원
675,675,도봉병원 <건강검진센터>,37.66914179999999,127.04387120000001,서울특별시 도봉구 도봉로 726,종합병원
676,676,도봉병원<본관>,37.6687601,127.04382790000001,서울특별시 도봉구 도봉로 720,종합병원
677,677,도봉병원<신관>,37.668525,127.04381969999999,서울특별시 도봉구 도봉로 718,종합병원
678,678,도봉보건소,37.657993499999996,127.0389254,서울특별시 도봉구 방학로3길 117,종합병원
679,679,도양라비앙타워빌딩(서울수치과),37.5315201,126.84654170000002,서울특별시 강서구 강서로  43,종합병원
680,680,동부요양병원,37.5605336,127.06716509999998,서울특별시 성동구 자동차시장1길 85,종합병원
681,681,동부제일병원,37.6007085,127.1090094,서울특별시 중랑구 망우로 511,종합병원
682,682,동서울병원,37.576056099999995,127.0256247,서울특별시 동대문구 왕산로 18,종합병원
683,683,동서한방병원,37.5646732,126.93027279999998,서울특별시 서대문구 성산로 365-14,종합병원
684,684,동신병원(구관),37.5813323,126.9364251,서울특별시 서대문구 연희로 272,종합병원
685,685,동신병원신관(동욱빌딩),37.5816902,126.936578,서울특별시 서대문구 연희로 276,종합병원
686,686,동작경희병원,37.5024765,126.9358649,서울특별시 동작구 상도로 146,종합병원
687,687,동작보건소,37.504550200000004,126.94100800000001,서울특별시 동작구 장승배기로10길 42,종합병원
688,688,드림비뇨기과 피부과,37.592850899999995,126.9134417,서울특별시 은평구 가좌로 271,종합병원
689,689,드림성형외과,37.5246,127.02887959999998,서울특별시 강남구 논현로  848,종합병원
690,690,드림요양병원,37.4966844,127.12216049999999,서울특별시 송파구 송이로 111,종합병원
691,691,라마드레 산부인과,37.5070119,127.04665359999998,서울특별시 강남구 선릉로  535,종합병원
692,692,라온병원(승일뷰티타워),37.5177489,126.8420281,서울특별시 양천구 신월로 164,종합병원
693,693,라피 메딩앙스 정형외과,37.522444799999995,127.02855020000001,서울특별시 강남구 논현로 828,종합병원
694,694,로고스치과,37.5548331,126.85429429999999,서울특별시 강서구 공항대로 426,종합병원
695,695,로고스치과병원,37.55887070000001,126.8389048,서울특별시 강서구 공항대로  281,종합병원
696,696,로하스은평효병원,37.6173231,126.9188543,서울특별시 은평구 연서로  209,종합병원
697,697,루시나산부인과,37.590281,127.01540559999998,서울특별시 성북구 보문로  180,종합병원
698,698,리더스 피부과,37.5198294,127.03011090000001,서울특별시 강남구 도산대로  212,종합병원
699,699,린피부과,37.5074552,127.09004270000001,서울특별시 송파구 석촌호수로  118,종합병원
700,700,마디병원,37.5177013,127.05119270000002,서울특별시 강남구 삼성로 646,종합병원
701,701,마리아병원,37.493035299999995,127.12461470000001,서울특별시 송파구 송이로 156,종합병원
702,702,마리아성모병원,37.5271387,126.9059592,서울특별시 영등포구 영중로  122,종합병원
703,703,맑은수병원,37.563889,127.0655703,서울특별시 동대문구 천호대로83길 44,종합병원
704,704,맑음숲한의원,37.47849160000001,126.98135590000001,서울특별시 동작구 동작대로 21,종합병원
705,705,메디아이여성병원,37.656488700000004,127.0670718,서울특별시 노원구 노원로 448,종합병원
706,706,메디켈센터,37.4739076,126.9181669,서울특별시 관악구 난곡로 214,종합병원
707,707,메디파크의원,37.6658216,127.07791680000001,서울특별시 노원구 덕릉로 768,종합병원
708,708,메디힐병원별관,37.5371988,126.8269689,서울특별시 양천구 남부순환로 330,종합병원
709,709,메디힐병원본관,37.53724860000001,126.8277922,서울특별시 양천구 남부순환로 331,종합병원
710,710,명지성모병원,37.493863,126.8992713,서울특별시 영등포구 도림로  156,종합병원
711,711,명지춘혜병원,37.5006638,126.8970392,서울특별시 영등포구 대림로 223,종합병원
712,712,모네여성병원,37.653725099999996,127.0678953,서울특별시 노원구 노원로 416,종합병원
713,713,모커리 병원(물리치료실),37.4926761,127.04287420000001,서울특별시 강남구 도곡로 218,종합병원
714,714,모커리한방병원,37.492670200000006,127.0427039,서울특별시 강남구 도곡로 216,종합병원
715,715,목동라테라산후조리원,37.533976700000004,126.8633384,서울특별시 강서구 등촌로  45,종합병원
716,716,목동연세병원,37.525304999999996,126.86417469999999,서울특별시 양천구 목동로 189,종합병원
717,717,문현치과의원,37.481469399999995,126.9142094,서울특별시 관악구 남부순환로 1474,종합병원
718,718,문화빌딩(서울수정형외과),37.540295799999996,127.1268159,서울특별시 강동구 구천면로  200,종합병원
719,719,미병원,37.52347570000001,127.0312247,서울특별시 강남구 논현로168길 35,종합병원
720,720,미소진치과,37.5884335,127.0169267,서울특별시 성북구 보문로  157,종합병원
721,721,미자인 의원,37.5239566,127.0422186,서울특별시 강남구 도산대로  423,종합병원
722,722,미즈메디병원,37.551719,126.83573840000001,서울특별시 강서구 강서로47가길  19,종합병원
723,723,밀레니엄차과 병원,37.5698841,126.9860512,서울특별시 종로구 종로 78,종합병원
724,724,바로선병원,37.660347200000004,127.0421345,서울특별시 도봉구 도봉로   628,종합병원
725,725,바른본병원,37.553519200000004,127.07716979999998,서울특별시 광진구 능동로 261,종합병원
726,726,바비페이스 병원,37.5082725,127.0231581,서울특별시 강남구 강남대로 516,종합병원
727,727,박형근정형외과,37.561521299999995,127.03458049999999,서울특별시 성동구 왕십리로  311,종합병원
728,728,반도정형외과병원,37.5672138,127.00567099999999,서울특별시 중구 을지로 245,종합병원
729,729,베드로병원(증축 및 대수선),37.48535800000001,127.0377822,서울특별시 강남구 남부순환로 2633,종합병원
730,730,베스티안 병원,37.4980274,127.0573038,서울특별시 강남구 도곡로 429,종합병원
731,731,베트로병원,37.557726,126.9570126,서울특별시 서대문구 신촌로37길  10,종합병원
732,732,보문효사랑병원,37.5797437,127.02273970000002,서울특별시 성북구 보문로 46,종합병원
733,733,본앤본정형외과,37.562508799999996,126.851146,서울특별시 강서구 공항대로43길 123,종합병원
734,734,부민병원,37.5568464,126.85091440000001,서울특별시 강서구 공항대로  389,종합병원
735,735,사랑의 병원,37.4796222,126.9562942,서울특별시 관악구 남부순환로 1860,종합병원
736,736,삼성미래여성병원,37.491228799999995,126.84040719999999,서울특별시 구로구 서해안로 2296,종합병원
737,737,삼성서울병원,37.4895794,127.08785230000001,서울특별시 강남구 일원로 81,종합병원
738,738,삼성제일병원신관,37.564752399999996,126.98173090000002,서울특별시 중구 남대문로 81,종합병원
739,739,삼육의료원장례식장,37.5879909,127.06530659999999,서울특별시 동대문구 망우로 82,종합병원
740,740,상계백병원,37.6485282,127.0631233,서울특별시 노원구 동일로 1342,종합병원
741,741,상계빌딩(굳쎈정형외과),37.6778453,127.05493510000001,서울특별시 노원구 동일로 1673,종합병원
742,742,상계정형외과의원,37.6580879,127.07139270000002,서울특별시 노원구 노원로26길 181,종합병원
743,743,상쾌한아침외과의원,37.653585299999996,127.0604094,서울특별시 노원구 동일로 1401,종합병원
744,744,새길병원,37.6566385,127.0137355,서울특별시 도봉구 삼양로 600,종합병원
745,745,새보람요양병원,37.66212520000001,127.04109340000001,서울특별시 도봉구 방학로3길  13,종합병원
746,746,새빛요양병원(윤빌딩),37.5583066,126.84644879999999,서울특별시 강서구 화곡로61길 109,종합병원
747,747,새서울병원,37.5731336,127.072152,서울특별시 동대문구 장한로 144,종합병원
748,748,새움병원,37.473762799999996,126.89797539999999,서울특별시 금천구 시흥대로  449,종합병원
749,749,새한빛병원,37.6381295,127.03003670000001,서울특별시 강북구 한천로 1002,종합병원
750,750,새희망병원,37.4934709,127.1429277,서울특별시 송파구 오금로 488,종합병원
751,751,서대문구보건소 천연분소,37.5696175,126.96132450000002,서울특별시 서대문구 독립문로 27,종합병원
752,752,서울 참병원,37.54082020000001,126.89502040000002,서울특별시 영등포구 양평로22사길 9,종합병원
753,753,서울대학교병원,37.5795742,126.9989953,서울특별시 종로구 대학로  101,종합병원
754,754,서울대효병원,37.5511272,126.8357821,서울특별시 강서구 강서로47가길 33,종합병원
755,755,서울미래정형외과,37.5988302,127.0341476,서울특별시 성북구 종암로21길 3,종합병원
756,756,서울밝은세상 안과(한양타운),37.5256112,127.03941299999998,서울특별시 강남구 선릉로 823,종합병원
757,757,서울백병원,37.5611241,126.99968059999999,서울특별시 중구 퇴계로46길 35,종합병원
758,758,서울베스트병원,37.6192886,127.02928999999999,서울특별시 강북구 도봉로 114,종합병원
759,759,서울병원,37.60886179999999,126.9307608,서울특별시 은평구 진흥로  191,종합병원
760,760,서울보훈병원,37.530634,127.1481606,서울특별시 강동구 진황도로61길  53,종합병원
761,761,서울복지병원,37.493250399999994,126.897908,서울특별시 영등포구 도림로  142,종합병원
762,762,서울선병원,37.598636299999995,127.09364679999999,서울특별시 중랑구 망우로 373,종합병원
763,763,서울성모병원,37.500944399999995,127.00511540000001,서울특별시 서초구 반포대로  222,종합병원
764,764,서울성심병원,37.5843076,127.04972959999999,서울특별시 동대문구 왕산로  259,종합병원
765,765,서울신내요양병원,37.606398799999994,127.1011707,서울특별시 중랑구 용마산로 622,종합병원
766,766,서울실버요양병원,37.5919277,127.0716732,서울특별시 중랑구 망우로 166-17,종합병원
767,767,서울연세요양병원,37.6034723,127.0368213,서울특별시 성북구 오패산로1길 1,종합병원
768,768,서울외과,37.5034232,127.0903244,서울특별시 송파구 백제고분로  214,종합병원
769,769,서울요양병원,37.4989806,126.9336803,서울특별시 동작구 성대로 43,종합병원
770,770,서울의료원(강남분원),37.5123691,127.0664019,서울특별시 강남구 봉은사로114길 43,종합병원
771,771,서울장례식장,37.4846995,126.8746051,서울특별시 금천구 서부샛길  732,종합병원
772,772,서울재활병원,37.605172700000004,126.9075445,서울특별시 은평구 갈현로11길  30,종합병원
773,773,서울적십자병원(장례식장),37.5670015,126.96703500000001,서울특별시 종로구 새문안로 9,종합병원
774,774,서울정형외과,37.672731299999995,127.0464294,서울특별시 도봉구 마들로 699,종합병원
775,775,서울척병원,37.6088547,127.02927120000001,서울특별시 성북구 동소문로47길  8,종합병원
776,776,"서울팀메이트치과,리뉴미치과(오플란트치과)",37.5415927,126.8391239,서울특별시 강서구 화곡로 157,종합병원
777,777,서울현대병원,37.640262,127.0285325,서울특별시 강북구 도봉로 374,종합병원
778,778,서울효요양병원,37.6580237,127.01408390000002,서울특별시 도봉구 삼양로  616,종합병원
779,779,서초보건소,37.483569,127.032598,서울특별시 서초구 남부순환로  2584,종합병원
780,780,석플란트 치과,37.52093789999999,127.033243,서울특별시 강남구 도산대로 238,종합병원
781,781,선양신경외과(수의원),37.5502548,126.8737377,서울특별시 강서구 양천로  699,종합병원
782,782,선의노인전문병원,37.655306599999996,127.05985220000001,서울특별시 노원구 동일로 1419,종합병원
783,783,선정신과의원,37.5488844,126.8360228,서울특별시 강서구 강서로 259,종합병원
784,784,선한이웃병원,37.6149088,127.0636679,서울특별시 노원구 화랑로 323,종합병원
785,785,성가치과,37.612817,126.9152531,서울특별시 은평구 서오릉로  166,종합병원
786,786,성누가의원,37.478924400000004,127.0089655,서울특별시 서초구 남부순환로315길 1,종합병원
787,787,성동보건소,37.56750260000001,127.03269109999998,서울특별시 성동구 마장로23길  12,종합병원
788,788,성바오로관절센터,37.579274,127.04404850000002,서울특별시 동대문구 왕산로36길 7,종합병원
789,789,성바오로병원,37.5792928,127.04346470000002,서울특별시 동대문구 왕산로 180,종합병원
790,790,성북보건소,37.602717,127.03954660000001,서울특별시 성북구 화랑로 63,종합병원
791,791,성북중앙병원,37.5968751,127.03559650000001,서울특별시 성북구 종암로 72,종합병원
792,792,성수보건분소,37.5479311,127.04357720000002,서울특별시 성동구 서울숲길  54,종합병원
793,793,성신병원,37.624988,127.02632759999999,서울특별시 강북구 도봉로 181,종합병원
794,794,성심고려병원,37.46676160000001,126.89409750000002,서울특별시 금천구 범안로 1191,종합병원
795,795,성심메디컬의원,37.5961232,127.0999378,서울특별시 중랑구 용마산로 503,종합병원
796,796,성애병원 본관,37.512049499999996,126.92238020000002,서울특별시 영등포구 여의대방로53길 22,종합병원
797,797,성지병원,37.4766045,126.89289140000001,서울특별시 금천구 가산로  122,종합병원
798,798,세란병원,37.5751835,126.95746070000001,서울특별시 종로구 통일로 256,종합병원
799,799,세이페병원,37.566578299999996,127.0616386,서울특별시 동대문구 한천로 49,종합병원
800,800,소리의원@강서점,37.5450178,126.83676489999999,서울특별시 강서구 강서로  215-1,종합병원
801,801,송도병원,37.558511100000004,126.84279950000001,서울특별시 강서구 공항대로  315,종합병원
802,802,송파참병원,37.5035432,127.137425,서울특별시 송파구 마천로 164,종합병원
803,803,송파청병원,37.5137931,127.1146963,서울특별시 송파구 백제고분로 488,종합병원
804,804,수내과,37.4805499,126.9091514,서울특별시 금천구 남부순환로  1426,종합병원
805,805,순천향대학교병원(교수연구동),37.533803999999996,127.00425790000001,서울특별시 용산구 대사관로 59,종합병원
806,806,스타병원,37.5445292,126.83805430000001,서울특별시 강서구 강서로  206,종합병원
807,807,시너지병원,37.516146,127.0365822,서울특별시 강남구 학동로 309,종합병원
808,808,시립동부병원,37.5753635,127.0315258,서울특별시 동대문구 무학로 124,종합병원
809,809,시립북부노인병원,37.604334,127.10774939999999,서울특별시 중랑구 양원역로 38,종합병원
810,810,시립은평병원,37.5934797,126.92356389999999,서울특별시 은평구 백련산로 90,종합병원
811,811,시립장애인구강진료센터,37.5667241,127.0328111,서울특별시 성동구 마장로  207,종합병원
812,812,시소모타워(강남물방울치과),37.510623700000004,127.0550563,서울특별시 강남구 삼성로 548,종합병원
813,813,신아타운(병원),37.6064619,127.0947354,서울특별시 중랑구 봉화산로 194,종합병원
814,814,신우요양병원,37.5795382,127.0681561,서울특별시 동대문구 한천로 207,종합병원
815,815,신촌리더스병원,37.5503706,126.9326895,서울특별시 마포구 서강로  82,종합병원
816,816,신촌연세병원,37.5525869,126.9337353,서울특별시 마포구 서강로 110,종합병원
817,817,신촌연세이비인후과(의원),37.5553092,126.93531979999999,서울특별시 마포구 신촌로 88,종합병원
818,818,신화병원,37.5251061,126.9056672,서울특별시 영등포구 영중로   100,종합병원
819,819,실로암안과병원,37.5460999,126.8622409,서울특별시 강서구 등촌로  181,종합병원
820,820,심청요양병원,37.5830193,127.0209729,서울특별시 성북구 보문로  86,종합병원
821,821,아산병원,37.52657620000001,127.10793500000001,서울특별시 송파구 올림픽로43길 88,종합병원
822,822,아이디병원,37.5252071,127.02507720000001,서울특별시 강남구 압구정로 148,종합병원
823,823,아이엠치과병원,37.52609,126.87108400000001,서울특별시 양천구 오목로 299,종합병원
824,824,아이제이스엠비.산부인과의원,37.555938,126.9098487,서울특별시 마포구 월드컵로 79,종합병원
825,825,아이젬산후조리원,37.6076981,126.9220584,서울특별시 은평구 서오릉로 82,종합병원
826,826,아카시아병원,37.46810670000001,126.8985623,서울특별시 금천구 시흥대로114길 5,종합병원
827,827,안강병원,37.493925399999995,127.0395906,서울특별시 강남구 논현로 323,종합병원
828,828,안세병원,37.5237823,127.04113459999999,서울특별시 강남구 도산대로 417,종합병원
829,829,안정형외과,37.483740000000004,127.0083331,서울특별시 서초구 효령로  221,종합병원
830,830,양병원,37.5340904,127.14008059999999,서울특별시 강동구 천호대로  1159,종합병원
831,831,양병원제2종합검진센터,37.5343523,127.13980079999999,서울특별시 강동구 진황도로 128,종합병원
832,832,양재 최의원,37.48624270000001,127.04404609999999,서울특별시 강남구 남부순환로  2725,종합병원
833,833,양천보건소,37.5175447,126.8658999,서울특별시 양천구 목동서로 339,종합병원
834,834,어린이치과,37.4840222,126.9815564,서울특별시 동작구 동작대로 83,종합병원
835,835,에머럴드 빌딩(BK의원),37.5168549,127.02216489999999,서울특별시 강남구 도산대로  122,종합병원
836,836,에스플란트 치과병원,37.52298,127.04050159999998,서울특별시 강남구 도산대로 410,종합병원
837,837,에이스정형외과,37.54041220000001,126.83697120000001,서울특별시 강서구 화곡로  136,종합병원
838,838,에이치큐브병원,37.6583061,127.04106100000001,서울특별시 도봉구 도봉로   604,종합병원
839,839,여러분병원,37.507223100000004,127.03260300000001,서울특별시 강남구 봉은사로  171,종합병원
840,840,연세SK병원,37.5110403,127.023199,서울특별시 강남구 학동로4길 7,종합병원
841,841,연세노블병원,37.604071399999995,126.92447560000001,서울특별시 은평구 서오릉로  37,종합병원
842,842,연세무척나은병원,37.55627379999999,127.08091840000002,서울특별시 광진구 천호대로 568-1,종합병원
843,843,연세바른병원,37.4843925,126.98058130000001,서울특별시 동작구 사당로 300,종합병원
844,844,연세방병원,37.6285396,127.070654,서울특별시 노원구 동일로197길 11,종합병원
845,845,연세병원,37.560649,127.0361528,서울특별시 성동구 왕십리로  296,종합병원
846,846,연세사랑병원,37.5097171,127.1138271,서울특별시 송파구 오금로  173,종합병원
847,847,연세사랑요양병원,37.6543558,127.01318729999998,서울특별시 도봉구 삼양로 574,종합병원
848,848,연세사랑정형외과,37.619932299999995,127.0745435,서울특별시 노원구 동일로 1005,종합병원
849,849,연세에덴병원,37.606165399999995,126.9334144,서울특별시 은평구 통일로 669,종합병원
850,850,연세영동병원,37.540110399999996,127.1271158,서울특별시 강동구 구천면로 202,종합병원
851,851,연세웰치과,37.648372200000004,127.0349125,서울특별시 도봉구 도봉로 480,종합병원
852,852,연세정형외과,37.4984225,127.1470348,서울특별시 송파구 거마로  62,종합병원
853,853,열린산후조리원,37.6073777,127.010112,서울특별시 성북구 보국문로 33,종합병원
854,854,영동병원,37.5632559,127.05860459999998,서울특별시 동대문구 한천로 4,종합병원
855,855,영등포한방병원,37.5200717,126.90183229999998,서울특별시 영등포구 영신로34길   5,종합병원
856,856,예닮요양병원,37.5364215,127.1390986,서울특별시 강동구 양재대로 1461,종합병원
857,857,예원요양센터,37.600443,127.10073600000001,서울특별시 중랑구 용마산로 554,종합병원
858,858,온누리병원,37.6122209,127.0587455,서울특별시 성북구 화랑로 271,종합병원
859,859,올림픽병원,37.5027516,127.0980197,서울특별시 송파구 백제고분로  283,종합병원
860,860,올림픽정형외과의원,37.4915798,127.11640890000001,서울특별시 송파구 중대로 68,종합병원
861,861,옵티마 성형외과 (보완수정안됨),37.5356552,126.94427809999999,서울특별시 마포구 마포대로4다길  31,종합병원
862,862,우리들병원,37.6425425,127.02265870000001,서울특별시 강북구 한천로 1083,종합병원
863,863,우이새길병원,37.65745020000001,127.01394479999999,서울특별시 도봉구 삼양로  610,종합병원
864,864,욱현하이브(요양병원),37.6396884,127.0741354,서울특별시 노원구 노원로 246,종합병원
865,865,웰튼병원,37.5540457,126.8371563,서울특별시 강서구 강서로  318,종합병원
866,866,위담한방병원,37.50142020000001,127.0541061,서울특별시 강남구 역삼로 430,종합병원
867,867,유광사병원,37.5436076,126.83890840000001,서울특별시 강서구 강서로  194,종합병원
868,868,유디 치과의원(현정빌딩),37.50385120000001,127.04817340000001,서울특별시 강남구 테헤란로 332,종합병원
869,869,유디치과의원,37.5399683,127.12443529999999,서울특별시 강동구 올림픽로 658,종합병원
870,870,윤호 함춘 병원,37.5288466,127.03442340000002,서울특별시 강남구 압구정로 304,종합병원
871,871,을지병원(본관동),37.6364794,127.0699355,서울특별시 노원구 한글비석로 68,종합병원
872,872,을지병원(의료동),37.6359555,127.07052890000001,서울특별시 노원구 공릉로 327,종합병원
873,873,을지병원(행정동),37.635679700000004,127.06985729999998,서울특별시 노원구 공릉로59나길 52,종합병원
874,874,의료시설(신애요양병원),37.6468199,127.06260449999999,서울특별시 노원구 동일로 1323,종합병원
875,875,의료시설(참좋은치과),37.605652899999995,126.9150957,서울특별시 은평구 연서로 73,종합병원
876,876,이너스치과병원,37.4827662,126.93985890000002,서울특별시 관악구 남부순환로 1710,종합병원
877,877,이대목동병원 병원동,37.5362859,126.8862379,서울특별시 양천구 안양천로 1071,종합병원
878,878,이성복치과,37.5250761,127.02489890000001,서울특별시 강남구 압구정로 146,종합병원
879,879,이엘치과의원,37.5337386,126.90117109999998,서울특별시 영등포구 당산로 223,종합병원
880,880,이영수의원,37.6484508,127.0342193,서울특별시 도봉구 도봉로   477,종합병원
881,881,이지애 성형외과 병원,37.5229482,127.02927040000002,서울특별시 강남구 압구정로30길 67,종합병원
882,882,이지펠리스(한걸음병원),37.59648720000001,127.08755590000001,서울특별시 중랑구 망우로 316,종합병원
883,883,인애가병원,37.5052764,127.13517340000001,서울특별시 송파구 마천로15길 6,종합병원
884,884,인애가한방병원(우신향한방병원),37.528861600000006,127.12299180000001,서울특별시 강동구 성내로6길  15,종합병원
885,885,인정병원,37.5865312,126.91635190000001,서울특별시 은평구 응암로  164,종합병원
886,886,인화재활병원,37.5173415,126.84117260000001,서울특별시 양천구 신월로 156,종합병원
887,887,자생한방병원(대경프라자),37.52359000000001,126.8757936,서울특별시 양천구 신목로 102,종합병원
888,888,장스여성병원,37.599654,127.09774409999999,서울특별시 중랑구 망우로 411,종합병원
889,889,제일병원(본관),37.56511,126.98887090000001,서울특별시 중구 마른내로 9,종합병원
890,890,제일정형외과의원,37.619004,127.07866990000001,서울특별시 노원구 화랑로 463,종합병원
891,891,조앤조병원,37.6003158,127.1047423,서울특별시 중랑구 망우로 474,종합병원
892,892,종로보건소,37.58184110000001,126.9692197,서울특별시 종로구 자하문로19길 36,종합병원
893,893,주영빌딩(가족사랑정신과의원),37.563055799999994,126.85223570000001,서울특별시 강서구 양천로  461,종합병원
894,894,중구보건분소청사,37.5656593,127.0159019,서울특별시 중구 다산로 253,종합병원
895,895,중구보건소청사,37.5645915,127.01511049999999,서울특별시 중구 다산로39길 16,종합병원
896,896,중랑프라임병원,37.6172311,127.079474,서울특별시 중랑구 공릉로 76,종합병원
897,897,중앙대학교병원,37.5067481,126.96078390000001,서울특별시 동작구 흑석로 102,종합병원
898,898,중앙병원장례식장,37.562194700000006,126.8092598,서울특별시 강서구 방화동로  12,종합병원
899,899,차병원(별관),37.5067941,127.035055,서울특별시 강남구 논현로 566,종합병원
900,900,참사랑병원,37.599863299999996,126.9164515,서울특별시 은평구 연서로  10,종합병원
901,901,참소망의원,37.5333949,127.123392,서울특별시 강동구 천호옛길 48,종합병원
902,902,참요양병원,37.5428857,126.83968829999999,서울특별시 강서구 강서로  182,종합병원
903,903,참포도나무병원,37.47993579999999,127.0386919,서울특별시 서초구 바우뫼로35길 32,종합병원
904,904,창동제일의원,37.6519078,127.0455297,서울특별시 도봉구 노해로65길 17-13,종합병원
905,905,천사병원,37.5765433,127.0477019,서울특별시 동대문구 서울시립대로 57,종합병원
906,906,첫단추조산원,37.5903529,127.01102820000001,서울특별시 성북구 동소문로  48,종합병원
907,907,청구성심병원,37.6208615,126.9197006,서울특별시 은평구 통일로  873,종합병원
908,908,청박메디미의원,37.52544620000001,127.02789979999999,서울특별시 강남구 압구정로28길 17,종합병원
909,909,청산입시학원(청산빌딩튼튼병원)G8-F2,37.541002399999996,126.8389473,서울특별시 강서구 화곡로  154,종합병원
910,910,청솔한의원,37.4990628,126.92877,서울특별시 동작구 국사봉1길 3,종합병원
911,911,청플란트치과,37.4837367,126.98159790000001,서울특별시 동작구 동작대로 79-1,종합병원
912,912,청하병원,37.507275,126.9401875,서울특별시 동작구 장승배기로 108,종합병원
913,913,최수년 산부인과(의원),37.5569389,126.9524429,서울특별시 마포구 신촌로 240,종합병원
914,914,최차혜병원,37.5475805,127.0677088,서울특별시 광진구 동일로30길 9,종합병원
915,915,최차혜병원치과,37.547602399999995,127.06744209999998,서울특별시 광진구 동일로30길 5,종합병원
916,916,친구병원,37.5422911,127.12531070000001,서울특별시 강동구 올림픽로 684,종합병원
917,917,코리아병원,37.5731883,127.071546,서울특별시 동대문구 장한로 143,종합병원
918,918,퀸스메디산부인과,37.6245378,127.0729963,서울특별시 노원구 동일로 1059,종합병원
919,919,큰누리메디컬센터,37.5835724,127.02007900000001,서울특별시 성북구 보문로  93,종합병원
920,920,큰사랑노인전문병원,37.47301420000001,127.05273899999999,서울특별시 강남구 논현로2길 30,종합병원
921,921,태릉마이크로병원,37.6182739,127.07487009999998,서울특별시 노원구 동일로 987,종합병원
922,922,튼튼병원,37.5347027,127.1375125,서울특별시 강동구 천호대로 1133,종합병원
923,923,튼튼병원(용도변경),37.5213099,127.055777,서울특별시 강남구 영동대로 713,종합병원
924,924,튼튼성모정형외과의원,37.5402275,126.8342017,서울특별시 강서구 화곡로 111,종합병원
925,925,파워스빌딩(린산부인과 입원동),37.5723194,127.0699469,서울특별시 동대문구 답십리로 266,종합병원
926,926,편강한의원,37.4843532,127.02839440000001,서울특별시 서초구 서운로1길  21,종합병원
927,927,포근한노인전문 병원,37.632297799999996,127.02419669999999,서울특별시 강북구 도봉로 266,종합병원
928,928,포근한맘요양병원,37.657077,127.01383870000001,서울특별시 도봉구 삼양로 606,종합병원
929,929,하나 이비인후과 병원,37.4979432,127.04297820000001,서울특별시 강남구 역삼로 245,종합병원
930,930,하나효요양원,37.6116011,126.9162395,서울특별시 은평구 서오릉로  149,종합병원
931,931,하이트 치과의원(쌍봉빌딩),37.528591,127.03414509999999,서울특별시 강남구 언주로  874,종합병원
932,932,학교법인 인제학원 인당관,37.5560071,127.0101243,서울특별시 중구 동호로 202,종합병원
933,933,한강성심병원,37.5234398,126.91035430000001,서울특별시 영등포구 버드나루로  55,종합병원
934,934,한강성심병원별관1,37.5231811,126.9096992,서울특별시 영등포구 버드나루로7길 12,종합병원
935,935,한강성심병원별관2,37.522580700000006,126.90942759999999,서울특별시 영등포구 버드나루로7길 13,종합병원
936,936,한국원자력의학원자력병원,37.6288213,127.08269650000001,서울특별시 노원구 노원로 75,종합병원
937,937,한누리치과병원,37.564041700000004,126.98979399999999,서울특별시 중구 수표로 31,종합병원
938,938,한마음종합클리닉,37.662180299999996,127.03400079999999,서울특별시 도봉구 방학로 163,종합병원
939,939,한맘 플러스 병원,37.5035364,127.0594663,서울특별시 강남구 역삼로 509,종합병원
940,940,한서병원,37.5003351,127.0391867,서울특별시 강남구 논현로86길 21,종합병원
941,941,한성빌딩(규림한의원),37.5264583,126.8639232,서울특별시 양천구 목동로 201,종합병원
942,942,한양대병원,37.554503600000004,127.04661100000001,서울특별시 성동구 왕십리로 222,종합병원
943,943,한일병원,37.646140100000004,127.02912279999998,서울특별시 도봉구 우이천로 308,종합병원
944,944,햇빛여성전문병원,37.6205839,127.0280741,서울특별시 강북구 도봉로 131,종합병원
945,945,햇살가득한가정의학과의원,37.5353742,126.8632043,서울특별시 강서구 등촌로  59-1,종합병원
946,946,행복한병원(삼부빌딩),37.599422499999996,127.0968725,서울특별시 중랑구 망우로 403,종합병원
947,947,현대프라자(의원),37.5200803,126.86031899999999,서울특별시 양천구 중앙로32길 61,종합병원
948,948,현산부인과,37.4852611,126.99485179999999,서울특별시 서초구 방배로  127,종합병원
949,949,혜담요양병원,37.6692231,127.0452965,서울특별시 도봉구 도봉로152길 26,종합병원
950,950,혜당한방병원,37.54802520000001,126.91679599999999,서울특별시 마포구 독막로 32,종합병원
951,951,혜민병원,37.535407899999996,127.08362460000001,서울특별시 광진구 자양로 85,종합병원
952,952,호산산부인과,37.5285643,127.0333467,서울특별시 강남구 언주로 871,종합병원
953,953,홍익병원본관,37.528463099999996,126.86363850000001,서울특별시 양천구 목동로 225,종합병원
954,954,화곡보건분소,37.535470000000004,126.8411107,서울특별시 강서구 월정로30길  96,종합병원
955,955,화인웰산후조리원,37.5787075,127.0226477,서울특별시 성북구 보문로  35,종합병원
956,956,황세영산부인과(더와이즈병원),37.5422531,126.8423672,서울특별시 강서구 화곡로  188,종합병원
957,957,효인병원,37.4794593,126.9034562,서울특별시 금천구 남부순환로  1372,종합병원
958,958,희명병원,37.453747,126.9012821,서울특별시 금천구 시흥대로  224,종합병원
959,959,힘찬병원,37.5592026,126.8406854,서울특별시 강서구 강서로56길  38,종합병원
960,960,가락2동주민센터,37.4902451,127.1187912,서울특별시 송파구 중대로24길 6,지역자치센터
961,961,가락본동주민센터,37.493863299999994,127.11876670000001,서울특별시 송파구 송파대로28길 3,지역자치센터
962,962,가락지구대,37.498193,127.12532340000001,서울특별시 송파구 중대로 179,경찰서
963,963,가리봉동주민센터,37.4813921,126.8936094,서울특별시 구로구 디지털로26길 5,지역자치센터
964,964,가리봉지구대,37.4875908,126.8919379,서울특별시 구로구 디지털로31길 90,경찰서
965,965,가리봉치안센터,37.479644,126.89299399999999,서울특별시 구로구 남부순환로107가길 16,경찰서
966,966,가산동복합청사,37.4768947,126.89177509999999,서울특별시 금천구 가산로  129,경찰서
967,967,가산우체국,37.4784533,126.89380770000001,서울특별시 금천구 남부순환로 1288,우체국
968,968,가양1동주민센터,37.569497,126.8447222,서울특별시 강서구 허준로 30,지역자치센터
969,969,가양2동주민센터,37.5673859,126.85125759999998,서울특별시 강서구 허준로  93,지역자치센터
970,970,가양2치안센터,37.5671284,126.8513939,서울특별시 강서구 허준로 95,경찰서
971,971,가양3동주민센터,37.561093799999995,126.8605592,서울특별시 강서구 허준로  202,지역자치센터
972,972,가양동우체국,37.567246399999995,126.8515746,서울특별시 강서구 허준로 95-5,우체국
973,973,가양지구대,37.559264399999996,126.85012420000001,서울특별시 강서구 화곡로65길  63,경찰서
974,974,가좌지구대,37.57604970000001,126.9240553,서울특별시 서대문구 가재울로4길 51,경찰서
975,975,가회동주민센터,37.580056899999995,126.9848011,서울특별시 종로구 북촌로  35,지역자치센터
976,976,갈현1동주민센터,37.6237021,126.9167189,서울특별시 은평구 갈현로 301,지역자치센터
977,977,갈현2동 주민센터,37.6185866,126.9158385,서울특별시 은평구 연서로27길 31-6,지역자치센터
978,978,강남경찰서,37.5146351,127.04676620000001,서울특별시 강남구 선릉로116길 57,경찰서
979,979,강남우체국,37.51837800000001,127.03444609999998,서울특별시 강남구 언주로 721,우체국
980,980,강동경찰서,37.5292619,127.12385049999999,서울특별시 강동구 성내로 33,경찰서
981,981,강동구청,37.530126,127.12377079999999,서울특별시 강동구 성내로 25,지역자치센터
982,982,강동구청 별관,37.5306399,127.12394509999999,서울특별시 강동구 성내로3가길 19,지역자치센터
983,983,강동우체국,37.536308899999995,127.1430813,서울특별시 강동구 양재대로112길 57,우체국
984,984,강북구청,37.639748,127.02548200000001,서울특별시 강북구 도봉로89길  13,지역자치센터
985,985,강북우체국,37.6240798,127.02811489999999,서울특별시 강북구 솔매로50길 55,우체국
986,986,강서구청,37.550937,126.84964199999999,서울특별시 강서구 화곡로 302,지역자치센터
987,987,강서구청 화곡별관,37.5497778,126.8509925,서울특별시 강서구 화곡로44나길 72,지역자치센터
988,988,강서우체국,37.5652661,126.84074740000001,서울특별시 강서구 강서로  448,우체국
989,989,개봉1동주민센터,37.500169,126.85152509999999,서울특별시 구로구 경인로33길 52,지역자치센터
990,990,개봉2동주민센터,37.490850099999996,126.85654640000001,서울특별시 구로구 개봉로16가길 17,지역자치센터
991,991,개봉3동주민센터,37.4860114,126.8538449,서울특별시 구로구 개봉로3길  47-5,지역자치센터
992,992,개봉3동치안센터,37.491776,126.85514280000001,서울특별시 구로구 개봉로17길 14,경찰서
993,993,개봉지구대,37.4918554,126.8564439,서울특별시 구로구 개봉로18길 5,경찰서
994,994,개봉치안센터,37.4980294,126.85292620000001,서울특별시 구로구 경인로 293,경찰서
995,995,개포 지구대,37.4797436,127.05118780000001,서울특별시 강남구 개포로  261,경찰서
996,996,개포1동 우체국,37.4829899,127.06049920000001,서울특별시 강남구 선릉로 36,우체국
997,997,개포1동 주민센터,37.4819717,127.0575019,서울특별시 강남구 개포로 310-17,지역자치센터
998,998,개포4동 주민센터,37.4788478,127.05163600000002,서울특별시 강남구 개포로38길 12,지역자치센터
999,999,개포동 우체국,37.488112,127.07376509999999,서울특별시 강남구 영동대로3길 7,우체국
1000,1000,거여1동주민센터,37.4969522,127.14331509999998,서울특별시 송파구 오금로53길 32,지역자치센터
1001,1001,거여2동주민센터,37.4935545,127.14513170000001,서울특별시 송파구 거마로2길  1,지역자치센터
1002,1002,거여동우체국,37.4895808,127.14258799999999,서울특별시 송파구 양산로 3,우체국
1003,1003,경찰청사,37.56336470000001,126.9674929,서울특별시 서대문구 통일로  97,경찰서
1004,1004,고덕 우체국,37.5564513,127.16585,서울특별시 강동구 고덕로 362,우체국
1005,1005,고덕1 치안센터,37.554994799999996,127.1311595,서울특별시 강동구 고덕로55길 63,경찰서
1006,1006,고덕2동 주민센터,37.5605161,127.1643852,서울특별시 강동구 아리수로78길 43-12,지역자치센터
1007,1007,고척1동주민센터,37.50041289999999,126.8627965,서울특별시 구로구 중앙로3길 18-8,지역자치센터
1008,1008,고척2동 주민센터,37.5067059,126.8586178,서울특별시 구로구 중앙로15길 22,지역자치센터
1009,1009,고척동 우체국,37.50444,126.86174550000001,서울특별시 구로구 중앙로 76,우체국
1010,1010,곰달래지구대,37.5329064,126.86316299999999,서울특별시 강서구 곰달래로59길 12,경찰서
1011,1011,공덕동주민센터,37.550185299999995,126.9600332,서울특별시 마포구 만리재옛길 84,지역자치센터
1012,1012,공덕지구대,37.5440033,126.9528768,서울특별시 마포구 만리재로 14,경찰서
1013,1013,공릉2동치안센터,37.6226504,127.08664080000001,서울특별시 노원구 노원로1길 2,경찰서
1014,1014,공릉동우체국,37.6184809,127.07573629999999,서울특별시 노원구 동일로 988,우체국
1015,1015,공릉치안센터,37.6267194,127.07893119999999,서울특별시 노원구 공릉로 189,경찰서
1016,1016,공항동우체국,37.561507399999996,126.81193950000001,서울특별시 강서구 공항대로  41,우체국
1017,1017,공항동주민센터,37.558785,126.81009350000001,서울특별시 강서구 송정로 45,지역자치센터
1018,1018,공항지구대,37.5623593,126.8082939,서울특별시 강서구 방화동로  5,경찰서
1019,1019,관악구청,37.4815018,126.9102348,서울특별시 관악구 남부순환로 1435,지역자치센터
1020,1020,관악산지구대,37.4737395,126.93540420000001,서울특별시 관악구 신림로28길 1,경찰서
1021,1021,관악우체국,37.4850281,126.93314699999999,서울특별시 관악구 남부순환로 1643,우체국
1022,1022,광나루지구대,37.5444545,127.1033392,서울특별시 광진구 아차산로 567,경찰서
1023,1023,광운대우체국,37.6191377,127.0600582,서울특별시 노원구 광운로6길 53,우체국
1024,1024,광장동주민센터,37.546892,127.103025,서울특별시 광진구 광장로 52,지역자치센터
1025,1025,광진경찰서,37.5428595,127.08389790000001,서울특별시 광진구 자양로 167,경찰서
1026,1026,광진우체국,37.5378744,127.09034879999999,서울특별시 광진구 강변역로 2,우체국
1027,1027,광화문우체국,37.5698583,126.9781097,서울특별시 종로구 종로 6,우체국
1028,1028,광희동청사,37.55187120000001,127.01257890000001,서울특별시 중구 동호로5길 19,경찰서
1029,1029,광희지구대,37.55729270000001,126.97934240000001,서울특별시 중구 퇴계로8길 46,경찰서
1030,1030,교남동 주민센터,37.571993299999995,126.9619051,서울특별시 종로구 송월길 154,지역자치센터
1031,1031,교통센터,37.6124585,127.07878000000001,서울특별시 중랑구 공릉로2가길 6,지역자치센터
1032,1032,구로1 치안센터,37.49118350000001,126.87515690000001,서울특별시 구로구 구일로 52,경찰서
1033,1033,구로1동 주민센터,37.4930594,126.87577250000001,서울특별시 구로구 구일로4길 57,지역자치센터
1034,1034,구로2 치안센터,37.4913771,126.8834703,서울특별시 구로구 구로동로 141,경찰서
1035,1035,구로3동 주민센터,37.4862369,126.8933,서울특별시 구로구 디지털로31길 38-9,지역자치센터
1036,1036,구로4동 우체국,37.4903468,126.8844281,서울특별시 구로구 구로동로 130-2,우체국
1037,1037,구로4동 주민센터,37.49161289999999,126.889159,서울특별시 구로구 구로동로28길 94,지역자치센터
1038,1038,구로경찰서,37.4948934,126.8867298,서울특별시 구로구 가마산로 235,경찰서
1039,1039,구로구청,37.495472,126.88753600000001,서울특별시 구로구 가마산로 245,지역자치센터
1040,1040,구산동주민센터,37.6117664,126.91038209999999,서울특별시 은평구 갈현로17길 10,지역자치센터
1041,1041,구의제1동주민센터,37.54250070000001,127.08568740000001,서울특별시 광진구 광나루로36길 56,지역자치센터
1042,1042,구의제2동주민센터,37.5472469,127.0899376,서울특별시 광진구 천호대로136길 55,지역자치센터
1043,1043,구일지구대,37.4892552,126.89069450000001,서울특별시 구로구 도림로 63,경찰서
1044,1044,군자동주민센터,37.555171,127.0759043,서울특별시 광진구 군자로  151,지역자치센터
1045,1045,금호1가동주민센터,37.5548948,127.02166909999998,서울특별시 성동구 행당로 15,지역자치센터
1046,1046,"금호2,3가동주민센터",37.553198200000004,127.0209188,서울특별시 성동구 무수막18길 1,지역자치센터
1047,1047,금호2가우체국,37.5548291,127.01966770000001,서울특별시 성동구 금호로11길    2,우체국
1048,1048,금호치안센터,37.5449355,127.0221874,서울특별시 성동구 금호로13나길 13-7,경찰서
1049,1049,길음1동주민센터,37.6104816,127.0194247,서울특별시 성북구 길음로 92,지역자치센터
1050,1050,길음2동주민센터,37.6066647,127.0273155,서울특별시 성북구 삼양로2길 70,지역자치센터
1051,1051,길음지구대,37.6105727,127.0192675,서울특별시 성북구 삼양로13길 51,경찰서
1052,1052,낙성대주민센터,37.4709624,126.921641,서울특별시 관악구 난곡로30길  40,지역자치센터
1053,1053,낙성대지구대,37.478304200000004,126.9594672,서울특별시 관악구 낙성대로 2,경찰서
1054,1054,난곡우체국,37.4785573,126.9148986,서울특별시 관악구 난곡로 275,우체국
1055,1055,남가좌1동주민센터,37.5706234,126.9155555,서울특별시 서대문구 수색로2길 48,지역자치센터
1056,1056,남가좌2동주민센터,37.5784441,126.92388670000001,서울특별시 서대문구 증가로10길 28,지역자치센터
1057,1057,남대문경찰서,37.5644653,127.0050513,서울특별시 중구 퇴계로 303-9,경찰서
1058,1058,남대문파출소,37.565273,127.0133929,서울특별시 중구 퇴계로 375-1,경찰서
1059,1059,남영동우체국,37.545083,126.972825,서울특별시 용산구 두텁바위로 6-1,우체국
1060,1060,남영동주민센터,37.5457834,126.97484240000001,서울특별시 용산구 두텁바위로  25,지역자치센터
1061,1061,남태령지구대,37.479538500000004,126.98213359999998,서울특별시 서초구 동작대로 34,경찰서
1062,1062,내곡동주민센터,37.4619102,127.0511936,서울특별시 서초구 염곡말길 9,지역자치센터
1063,1063,내발산문화센터,37.5575102,126.84320120000001,서울특별시 강서구 강서로52길  89,지역자치센터
1064,1064,노들(본동)지구대,37.512397299999996,126.9536507,서울특별시 동작구 노량진로 248,경찰서
1065,1065,노량진1동주민센터,37.512308000000004,126.94201299999999,서울특별시 동작구 장승배기로28길 30,지역자치센터
1066,1066,노량진2동주민센터,37.508509000000004,126.937352,서울특별시 동작구 장승배기로19길 48,지역자치센터
1067,1067,노량진2동파출소,37.5054614,126.9398051,서울특별시 동작구 장승배기로 89,경찰서
1068,1068,노량진우체국,37.5124571,126.95065020000001,서울특별시 동작구 노량진로 224,우체국
1069,1069,노원역지구대,37.65502,127.06693500000002,서울특별시 노원구 노원로 431,경찰서
1070,1070,논현지구대,37.51521629999999,127.03386370000001,서울특별시 강남구 학동로 227,경찰서
1071,1071,능동주민센터,37.5537641,127.08056940000002,서울특별시 광진구 천호대로112길 55,지역자치센터
1072,1072,답십리1동주민센터,37.57195,127.05108,서울특별시 동대문구 사가정로  30,지역자치센터
1073,1073,답십리2동주민센터,37.5674109,127.0612929,서울특별시 동대문구 한천로11길  18,지역자치센터
1074,1074,답십리우체국,37.5706093,127.0490185,서울특별시 동대문구 사가정로 7,우체국
1075,1075,답십리지구대,37.5735875,127.0533723,서울특별시 동대문구 답십리로41길 34,경찰서
1076,1076,당고개파출소,37.663889399999995,127.0752308,서울특별시 노원구 상계로 221,경찰서
1077,1077,당곡지구대,37.4859769,126.9343917,서울특별시 관악구 남부순환로191길 12,경찰서
1078,1078,당산1동주민센터,37.5249643,126.897443,서울특별시 영등포구 양산로23길  11,지역자치센터
1079,1079,당산2동주민센터,37.5347091,126.90210590000001,서울특별시 영등포구 당산로 235,지역자치센터
1080,1080,당산우체국,37.5236893,126.8964491,서울특별시 영등포구 당산로 102,우체국
1081,1081,당현지구대,37.6420356,127.06835929999998,서울특별시 노원구 노원로17길 64,경찰서
1082,1082,대림1동주민센터,37.4954685,126.905818,서울특별시 영등포구 디지털로 441,지역자치센터
1083,1083,대림1동지구대,37.4922911,126.90875290000001,서울특별시 영등포구 시흥대로  681,경찰서
1084,1084,대림2동주민센터,37.49615120000001,126.89962179999999,서울특별시 영등포구 대림로  170,지역자치센터
1085,1085,대림3 파출소,37.4983286,126.89804509999999,서울특별시 영등포구 대림로 197,경찰서
1086,1086,대림우체국,37.489697,126.904575,서울특별시 영등포구 대림로 85,우체국
1087,1087,대림파출소,37.493443799999994,126.8987176,서울특별시 영등포구 대림로23길 16-1,경찰서
1088,1088,대방(신대방2동)파출소,37.498917999999996,126.925852,서울특별시 동작구 여의대방로24길 106,경찰서
1089,1089,대방동주민센터,37.508133,126.92635,서울특별시 동작구 여의대방로44길 20,지역자치센터
1090,1090,대방지구대,37.48665220000001,126.9059495,서울특별시 동작구 신대방1다길 24,경찰서
1091,1091,대왕 파출소,37.4651761,127.1073625,서울특별시 강남구 헌릉로 623,경찰서
1092,1092,대조동 주민센터,37.614182,126.92083240000001,서울특별시 은평구 연서로20길 24-3,지역자치센터
1093,1093,대조동우체국,37.61290200000001,126.9266998,서울특별시 은평구 통일로71길  20,우체국
1094,1094,대학동주민센터,37.4881777,126.93280259999999,서울특별시 관악구 봉천로 279-8,지역자치센터
1095,1095,대학로파출소,37.578621999999996,127.0060598,서울특별시 종로구 이화장2길 33,경찰서
1096,1096,도곡치안센터,37.4845875,127.0468472,서울특별시 강남구 남부순환로378길  29,경찰서
1097,1097,도림동주민센터,37.5094857,126.89598980000001,서울특별시 영등포구 도영로7길  10,지역자치센터
1098,1098,도봉1동우체국,37.6822346,127.0454125,서울특별시 도봉구 도봉로  871,우체국
1099,1099,도봉1동주민센터,37.6786805,127.04335859999999,서울특별시 도봉구 도봉로169나길   22,지역자치센터
1100,1100,도봉1동치안센터,37.6774247,127.0438471,서울특별시 도봉구 도봉로169나길   49,경찰서
1101,1101,도봉2동우체국,37.6750654,127.0471061,서울특별시 도봉구 마들로  727,우체국
1102,1102,도봉2동파출소,37.684021200000004,127.04928659999999,서울특별시 도봉구 도봉로180나길 33,경찰서
1103,1103,도봉2주민센터 <도봉서원복지관>,37.6696521,127.04655859999998,서울특별시 도봉구 마들로  668,지역자치센터
1104,1104,도봉경찰서,37.65344870000001,127.052775,서울특별시 도봉구 노해로  403,경찰서
1105,1105,도봉구청,37.6687169,127.04716100000002,서울특별시 도봉구 마들로  656,지역자치센터
1106,1106,도화동주민센터,37.537589000000004,126.95021470000002,서울특별시 마포구 도화2길 77,지역자치센터
1107,1107,독산1동주민센터,37.4702285,126.89704240000002,서울특별시 금천구 시흥대로123길 11,지역자치센터
1108,1108,독산2동 주민센터,37.4661409,126.89977879999999,서울특별시 금천구 범안로 1240-7,지역자치센터
1109,1109,독산3동 주민센터,37.4751889,126.90318090000001,서울특별시 금천구 독산로  317,지역자치센터
1110,1110,독산4동청사,37.4675814,126.9021855,서울특별시 금천구 독산로 232,경찰서
1111,1111,돈암1동주민센터,37.6034235,127.02636809999998,서울특별시 성북구 정릉로 394,지역자치센터
1112,1112,돈암2동주민센터,37.5980218,127.0105375,서울특별시 성북구 흥천사길  7,지역자치센터
1113,1113,돈암우체국,37.5901987,127.0157085,서울특별시 성북구 보문로  178,우체국
1114,1114,돈암지구대,37.597350399999996,127.0124172,서울특별시 성북구 아리랑로5길 54,경찰서
1115,1115,동구로우체국,37.4961805,126.89210929999999,서울특별시 구로구 구로중앙로18길 57,우체국
1116,1116,동대문경찰서,37.585100399999995,127.04576429999999,서울특별시 동대문구 약령시로21길  29,경찰서
1117,1117,동대문우체국,37.57496810000001,127.0239418,서울특별시 동대문구 천호대로 4,우체국
1118,1118,동묘파출소,37.5727073,127.0176875,서울특별시 종로구 종로58길 19,경찰서
1119,1119,동선동주민센터,37.5939846,127.0204203,서울특별시 성북구 동소문로26길  27,지역자치센터
1120,1120,동소문우체국,37.5896544,127.00740330000001,서울특별시 성북구 성북로2길 31,우체국
1121,1121,동작경찰서,37.5131459,126.94285959999999,서울특별시 동작구 노량진로 148,경찰서
1122,1122,동작구청,37.51245,126.9395,서울특별시 동작구 장승배기로 161,지역자치센터
1123,1123,동작우체국,37.4980518,126.9243757,서울특별시 동작구 여의대방로22길 77,우체국
1124,1124,두산아파트(면목7동우체국),37.5801261,127.08299869999999,서울특별시 중랑구 면목로37길 57,우체국
1125,1125,둔촌1동 주민센터,37.523491799999995,127.13672949999999,서울특별시 강동구 양재대로84길 31,지역자치센터
1126,1126,둔촌2동 주민센터,37.5333417,127.1419612,서울특별시 강동구 천호대로186길 7,지역자치센터
1127,1127,등촌1동주민센터,37.5558357,126.8589243,서울특별시 강서구 공항대로53가길  55,지역자치센터
1128,1128,등촌1동치안센터,37.5525012,126.8623175,서울특별시 강서구 공항대로  501,경찰서
1129,1129,등촌2동주민센터,37.5426586,126.86250090000001,서울특별시 강서구 등촌로  143,지역자치센터
1130,1130,등촌2파출소,37.5448208,126.86189040000001,서울특별시 강서구 등촌로  167,경찰서
1131,1131,등촌3동주민센터,37.558914,126.8479146,서울특별시 강서구 화곡로63길  96,지역자치센터
1132,1132,등촌동우체국,37.558862100000006,126.8482017,서울특별시 강서구 화곡로63길 90,우체국
1133,1133,뚝섬우체국,37.5414253,127.0496213,서울특별시 성동구 뚝섬로3길  14,우체국
1134,1134,마들파출소,37.6646152,127.0636226,서울특별시 노원구 한글비석로 489,경찰서
1135,1135,마장동주민센터,37.5663274,127.04542990000002,서울특별시 성동구 마장로42길   11,지역자치센터
1136,1136,마장우체국,37.5709095,127.03821119999999,서울특별시 성동구 고산자로 352,우체국
1137,1137,마장치안센터,37.569146999999994,127.0375717,서울특별시 성동구 고산자로 332,경찰서
1138,1138,마천1동주민센터,37.4930604,127.15267890000001,서울특별시 송파구 마천로 343,지역자치센터
1139,1139,마천2동주민센터,37.49685510000001,127.14855530000001,서울특별시 송파구 마천로  287,지역자치센터
1140,1140,마천지구대,37.497041700000004,127.1482294,서울특별시 송파구 마천로41길 8,경찰서
1141,1141,마포경찰서,37.5510175,126.9539447,서울특별시 마포구 마포대로  183,경찰서
1142,1142,망우1동치안센터,37.601482,127.10636299999999,서울특별시 중랑구 망우로77길 12,경찰서
1143,1143,망우3동주민센터,37.592382,127.0981757,서울특별시 중랑구 용마산로 461,지역자치센터
1144,1144,망우3치안센터,37.5946899,127.1017918,서울특별시 중랑구 용마공원로5길 13,경찰서
1145,1145,망우본동우체국,37.6004186,127.1016678,서울특별시 중랑구 망우로 447,우체국
1146,1146,망우지구대,37.5991108,127.0956923,서울특별시 중랑구 망우로 391,경찰서
1147,1147,망원1동주민센터,37.555583899999995,126.905612,서울특별시 마포구 포은로6길  10,지역자치센터
1148,1148,망원2동주민센터,37.5603124,126.9023164,서울특별시 마포구 방울내로7길 11,지역자치센터
1149,1149,망원2동치안센터,37.56162379999999,126.903745,서울특별시 마포구 월드컵로31길 18,경찰서
1150,1150,망원우체국,37.5581802,126.90784209999998,서울특별시 마포구 월드컵로  111,우체국
1151,1151,망원지구대,37.55434260000001,126.9027422,서울특별시 마포구 망원로2길  63,경찰서
1152,1152,먹골순찰지구대,37.6146276,127.0815888,서울특별시 중랑구 숙선옹주로7길 1,경찰서
1153,1153,면목1치안센터,37.5866804,127.0886446,서울특별시 중랑구 면목로66길 7,경찰서
1154,1154,면목2동주민센터,37.589799,127.07905,서울특별시 중랑구 동일로101길 20-15,지역자치센터
1155,1155,"면목3,8동 복합청사",37.5829592,127.0880893,서울특별시 중랑구 사가정로51길 48,경찰서
1156,1156,면목4동주민센터,37.574673600000004,127.08557749999999,서울특별시 중랑구 면목로 246,지역자치센터
1157,1157,면목4치안센터,37.574374,127.08059579999998,서울특별시 중랑구 답십리로75길 61,경찰서
1158,1158,면목5동복합청사,37.585759100000004,127.07949479999999,서울특별시 중랑구 동일로 619,경찰서
1159,1159,면목7동 주민센터,37.579012299999995,127.08698590000002,서울특별시 중랑구 면목로 298,지역자치센터
1160,1160,면목7치안센터,37.577373,127.0857248,서울특별시 중랑구 면목로 275,경찰서
1161,1161,면목동우체국,37.5826133,127.0888332,서울특별시 중랑구 면목로 344,우체국
1162,1162,면목삼팔파출소,37.5832217,127.0841713,서울특별시 중랑구 사가정로41길 45,경찰서
1163,1163,면목지구대,37.5882009,127.09390379999999,서울특별시 중랑구 상봉로 27,경찰서
1164,1164,명동청사및남산문화예술회관,37.5548366,126.97357620000001,서울특별시 중구 한강대로 410,경찰서
1165,1165,명동파출소,37.559388299999995,126.97618600000001,서울특별시 중구 소월로 3,경찰서
1166,1166,명일1동 주민센터,37.5497683,127.14599779999999,서울특별시 강동구 양재대로138길 37,지역자치센터
1167,1167,명일2동 주민센터,37.54619260000001,127.15194509999999,서울특별시 강동구 상암로 264,지역자치센터
1168,1168,목1동주민센터,37.5303703,126.8712443,서울특별시 양천구 목동서로 192,지역자치센터
1169,1169,목2동주민센터,37.5461527,126.8717168,서울특별시 양천구 목동중앙본로 120,지역자치센터
1170,1170,목3동주민센터,37.5447468,126.8644551,서울특별시 양천구 목동중앙남로16나길 55,지역자치센터
1171,1171,목4동주민센터,37.5323943,126.8684037,서울특별시 양천구 목동중앙로 25,지역자치센터
1172,1172,목5동주민센터,37.535196899999995,126.8786594,서울특별시 양천구 목동동로 375,지역자치센터
1173,1173,무악동 주민센터,37.57598970000001,126.958192,서울특별시 종로구 통일로14길 36,지역자치센터
1174,1174,묵1동주민센터,37.6124237,127.0784986,서울특별시 중랑구 공릉로2가길 5,지역자치센터
1175,1175,묵2동주민센터,37.6096031,127.07602959999998,서울특별시 중랑구 동일로157길 29,지역자치센터
1176,1176,묵동우체국,37.6103715,127.07745520000002,서울특별시 중랑구 동일로 895,우체국
1177,1177,문래동주민센터,37.51713400000001,126.89953670000001,서울특별시 영등포구 문래로28길  15,지역자치센터
1178,1178,문래지구대,37.5135815,126.89766259999999,서울특별시 영등포구 경인로  759,경찰서
1179,1179,문정1동주민센터,37.4900826,127.12419779999999,서울특별시 송파구 동남로  116,지역자치센터
1180,1180,문정2동주민센터,37.4898719,127.1108425,서울특별시 송파구 중대로 16,지역자치센터
1181,1181,미성동 주민센터,37.4761906,126.91556329999999,서울특별시 관악구 난곡로 249,지역자치센터
1182,1182,미아지구대,37.6201542,127.02828190000001,서울특별시 강북구 도봉로 127,경찰서
1183,1183,반포1동주민센터,37.50509270000001,127.01337759999998,서울특별시 서초구 사평대로 273,지역자치센터
1184,1184,반포2동주민센터,37.5045816,126.9944824,서울특별시 서초구 신반포로15길 16,지역자치센터
1185,1185,반포3동주민센터,37.511831799999996,127.00533259999999,서울특별시 서초구 신반포로23길 78,지역자치센터
1186,1186,반포4동주민센터,37.4974922,127.0003393,서울특별시 서초구 사평대로28길 70,지역자치센터
1187,1187,반포본동주민센터,37.5004724,126.9860783,서울특별시 서초구 신반포로  10,지역자치센터
1188,1188,반포지구대,37.504917799999994,127.00321310000001,서울특별시 서초구 신반포로 176,경찰서
1189,1189,발산1동주민센터,37.5531308,126.83318999999999,서울특별시 강서구 강서로47길  54,지역자치센터
1190,1190,발산동우체국,37.5510853,126.83604070000001,서울특별시 강서구 강서로  283,우체국
1191,1191,발산파출소,37.5494154,126.8260298,서울특별시 강서구 수명로2길  46,경찰서
1192,1192,방배2동주민센터,37.4797439,126.9855106,서울특별시 서초구 청두곶길 36,지역자치센터
1193,1193,방배3동주민센터,37.480331899999996,126.9990252,서울특별시 서초구 방배로10길  10-20,지역자치센터
1194,1194,방배4동주민센터,37.4896038,126.99135829999999,서울특별시 서초구 방배로27길 13,지역자치센터
1195,1195,방배경찰서,37.4816273,126.9830176,서울특별시 서초구 방배천로 54,경찰서
1196,1196,방배본동주민센터,37.4941464,126.98881850000001,서울특별시 서초구 동광로19길  38,지역자치센터
1197,1197,방배우체국,37.4943821,126.98977169999999,서울특별시 서초구 방배로 238,우체국
1198,1198,방범CCTV관제센터,37.589683,127.07625049999999,서울특별시 중랑구 봉우재로6길 5,지역자치센터
1199,1199,방이1동주민센터,37.5109839,127.12393130000001,서울특별시 송파구 위례성대로16길 22,지역자치센터
1200,1200,방이우체국,37.509006899999996,127.1151531,서울특별시 송파구 오금로  187,우체국
1201,1201,방이지구대,37.5102477,127.1257635,서울특별시 송파구 양재대로71길 5-6,경찰서
1202,1202,방학1동주민센터,37.664237299999996,127.0406781,서울특별시 도봉구 방학로2길  27,지역자치센터
1203,1203,방학2동주민센터,37.6682223,127.035068,서울특별시 도봉구 시루봉로   226,지역자치센터
1204,1204,방학2동치안센터,37.6628825,127.0306834,서울특별시 도봉구 방학로12길  18,경찰서
1205,1205,방학3동주민센터,37.6591886,127.0280351,서울특별시 도봉구 시루봉로   94,지역자치센터
1206,1206,방학우체국,37.6656498,127.0432731,서울특별시 도봉구 도봉로   686,우체국
1207,1207,방학파출소,37.6645052,127.04004099999999,서울특별시 도봉구 도봉로145길  45,경찰서
1208,1208,방화1동주민센터,37.5715645,126.8122172,서울특별시 강서구 방화동로  124-1,지역자치센터
1209,1209,방화2동주민센터,37.5666997,126.80675490000002,서울특별시 강서구 개화동로23길 20,지역자치센터
1210,1210,방화3동주민센터,37.5788136,126.8136807,서울특별시 강서구 금낭화로24길  5,지역자치센터
1211,1211,방화3동파출소,37.5798171,126.8147229,서울특별시 강서구 금낭화로26길 16,경찰서
1212,1212,방화동우체국,37.579833799999996,126.8150178,서울특별시 강서구 금낭화로26길  22,우체국
1213,1213,번1동주민센터,37.6378943,127.0288824,서울특별시 강북구 덕릉로41길 74,지역자치센터
1214,1214,번1동지구대,37.6359725,127.03260390000001,서울특별시 강북구 한천로 969,경찰서
1215,1215,번2동우체국,37.6317612,127.0378403,서울특별시 강북구 오현로35길 65,우체국
1216,1216,번2동주민센터,37.6323588,127.0387953,서울특별시 강북구 한천로 897,지역자치센터
1217,1217,번3동 주민센터,37.625873999999996,127.04665,서울특별시 강북구 한천로105길 21,지역자치센터
1218,1218,번3동우체국,37.6257351,127.0462507,서울특별시 강북구 한천로105길 27,우체국
1219,1219,번3동지구대,37.62363970000001,127.0481575,서울특별시 강북구 월계로 227,경찰서
1220,1220,보건복지부,37.578028100000004,126.9876625,서울특별시 종로구 율곡로 75,보건소
1221,1221,보광동우체국,37.52658579999999,127.0002105,서울특별시 용산구 보광로 25,우체국
1222,1222,보광동주민센터,37.5263148,127.000175,서울특별시 용산구 장문로  95,지역자치센터
1223,1223,보광파출소,37.5267955,127.00016780000001,서울특별시 용산구 보광로 27,경찰서
1224,1224,보문동주민센터,37.5803796,127.02281380000001,서울특별시 성북구 안암로3길  35,지역자치센터
1225,1225,본동치안센터,37.5437724,126.84539009999999,서울특별시 강서구 까치산로  51,경찰서
1226,1226,봉화지구대,37.6147968,127.0955418,서울특별시 중랑구 신내로 177,경찰서
1227,1227,부암동주민센터,37.5924786,126.96410719999999,서울특별시 종로구 창의문로 145,지역자치센터
1228,1228,북가좌1동주민센터,37.5773782,126.9084893,서울특별시 서대문구 거북골로19길 21,지역자치센터
1229,1229,북가좌2동주민센터,37.5815025,126.91118429999999,서울특별시 서대문구 응암로1길 10,지역자치센터
1230,1230,북가좌2치안센터,37.5830078,126.91289990000001,서울특별시 서대문구 증가로  244,경찰서
1231,1231,북부고용지원센터,37.6534456,127.05821440000001,서울특별시 노원구 노해로 450,지역자치센터
1232,1232,불광1동주민센터,37.610378600000004,126.9321076,서울특별시 은평구 진흥로15길 10,지역자치센터
1233,1233,불광2동주민센터,37.6265021,126.9272892,서울특별시 은평구 연서로41길  16,지역자치센터
1234,1234,불암파출소,37.6524484,127.07734750000002,서울특별시 노원구 한글비석로 277,경찰서
1235,1235,사근동주민센터,37.5612117,127.04588000000001,서울특별시 성동구 사근동길  45-8,지역자치센터
1236,1236,사당1동주민센터,37.4830915,126.9787808,서울특별시 동작구 동작대로17길 28,지역자치센터
1237,1237,사당2동주민센터,37.488383299999995,126.97759950000001,서울특별시 동작구 동작대로29길 63-26,지역자치센터
1238,1238,사당3동남성지구대,37.4836009,126.97465090000001,서울특별시 동작구 사당로17길 4,경찰서
1239,1239,사당3동주민센터,37.4866922,126.9720425,서울특별시 동작구 사당로17길 86,지역자치센터
1240,1240,사당4동 파출소,37.4809702,126.9713949,서울특별시 동작구 사당로16아길 10,경찰서
1241,1241,사당4동주민센터,37.4809888,126.97167040000001,서울특별시 동작구 사당로16아길 6,지역자치센터
1242,1242,사당5동주민센터,37.4856704,126.96700359999998,서울특별시 동작구 사당로2가길 219,지역자치센터
1243,1243,사당5동치안센터,37.4891607,126.9655713,서울특별시 동작구 사당로 136,경찰서
1244,1244,사당동우체국,37.4834015,126.9814144,서울특별시 동작구 동작대로 75,우체국
1245,1245,사당동지구대,37.480561200000004,126.9795437,서울특별시 동작구 동작대로9길 35,경찰서
1246,1246,사직동주민센터,37.576196,126.96883970000002,서울특별시 종로구 사직로9길 1,지역자치센터
1247,1247,사직동치안센터,37.576333,126.96858799999998,서울특별시 종로구 사직로9길 5,경찰서
1248,1248,산업연구원우체국,37.5909128,127.0451175,서울특별시 동대문구 회기로 66,우체국
1249,1249,삼선동주민센터,37.5908596,127.0146473,서울특별시 성북구 보문로  190,지역자치센터
1250,1250,삼성2 지구대,37.5112974,127.0481018,서울특별시 강남구 봉은사로  440,경찰서
1251,1251,삼성동 우체국,37.5095385,127.04442490000001,서울특별시 강남구 선릉로  572,우체국
1252,1252,삼성동 주민센터,37.470124299999995,126.9329682,서울특별시 관악구 호암로  589,지역자치센터
1253,1253,삼양동우체국,37.62388350000001,127.018397,서울특별시 강북구 삼양로 229,우체국
1254,1254,삼양동주민센터,37.627342299999995,127.0183885,서울특별시 강북구 삼양로 268,지역자치센터
1255,1255,삼전동우체국,37.5023384,127.09480459999999,서울특별시 송파구 백제고분로 256,우체국
1256,1256,삼전동주민센터,37.502741,127.09254979999999,서울특별시 송파구 백제고분로 236,지역자치센터
1257,1257,삼청동우체국,37.586936,126.98501409999999,서울특별시 종로구 북촌로 112,우체국
1258,1258,삼청동주민센터,37.58501029999999,126.981857,서울특별시 종로구 삼청로 107,지역자치센터
1259,1259,삼청파출소,37.5814232,126.9811351,서울특별시 종로구 삼청로 66,경찰서
1260,1260,상계14동우체국,37.66093970000001,127.062634,서울특별시 노원구 노원로 510,우체국
1261,1261,상계14동주민센터,37.6612862,127.0603049,서울특별시 노원구 노원로 530,지역자치센터
1262,1262,상계1동우체국,37.674130700000006,127.0557287,서울특별시 노원구 동일로 1632,우체국
1263,1263,상계1동주민센터,37.679914200000006,127.05494990000001,서울특별시 노원구 동일로 1697,지역자치센터
1264,1264,상계1동치안센터,37.6796873,127.0550396,서울특별시 노원구 동일로 1693,경찰서
1265,1265,상계2동주민센터,37.658812,127.0685236,서울특별시 노원구 상계로23길 17,지역자치센터
1266,1266,상계3동우체국,37.666304,127.0770649,서울특별시 노원구 덕릉로113길 18,우체국
1267,1267,상계4동치안센터,37.671480700000004,127.0778538,서울특별시 노원구 상계로35길 29,경찰서
1268,1268,상계5동주민센터,37.6629869,127.06938429999998,서울특별시 노원구 한글비석로 434,지역자치센터
1269,1269,상계6.7동주민센터,37.654899,127.0669696,서울특별시 노원구 노원로 429,지역자치센터
1270,1270,상계6동우체국,37.6534271,127.05794750000001,서울특별시 노원구 노해로 448,우체국
1271,1271,상계8동주민센터,37.6667588,127.051552,서울특별시 노원구 동일로227길 97,지역자치센터
1272,1272,상계8동치안센터,37.66686660000001,127.05171100000001,서울특별시 노원구 동일로227길 95,경찰서
1273,1273,상계동주민센터,37.6645383,127.0638322,서울특별시 노원구 한글비석로 487,지역자치센터
1274,1274,상도1동주민센터,37.5023146,126.9516271,서울특별시 동작구 상도로47마길 4,지역자치센터
1275,1275,상도2동주민센터,37.5054831,126.9423083,서울특별시 동작구 상도로 211,지역자치센터
1276,1276,상도3동주민센터,37.4991218,126.93140659999999,서울특별시 동작구 성대로2길 11,지역자치센터
1277,1277,상도3동파출소,37.499909499999994,126.93037450000001,서울특별시 동작구 상도로 87,경찰서
1278,1278,상도4동주민센터,37.5006061,126.93778600000002,서울특별시 동작구 성대로29길 53,지역자치센터
1279,1279,상도4동파출소,37.500822799999995,126.9376053,서울특별시 동작구 성대로29길 61,경찰서
1280,1280,상도동우체국,37.505008000000004,126.94485790000002,서울특별시 동작구 상도로 236,우체국
1281,1281,상도지구대,37.504166299999994,126.9391375,서울특별시 동작구 장승배기로 73,경찰서
1282,1282,상봉1동주민센터,37.5998528,127.0871851,서울특별시 중랑구 상봉중앙로1길 6,지역자치센터
1283,1283,상봉2동주민센터,37.59242620000001,127.0832793,서울특별시 중랑구 봉우재로 93-5,지역자치센터
1284,1284,상봉지구대,37.59133410000001,127.07286359999999,서울특별시 중랑구 중랑천로 69,경찰서
1285,1285,상암동주민센터,37.578319,126.89468190000001,서울특별시 마포구 매봉산로2길 16,지역자치센터
1286,1286,상암파출소(상암치안센터),37.5782843,126.8938614,서울특별시 마포구 매봉산로 76,경찰서
1287,1287,상일동 우체국,37.5545586,127.1719341,서울특별시 강동구 상일로,우체국
1288,1288,상일동 주민센터,37.55453970000001,127.1343554,서울특별시 강동구 고덕로84길 111,지역자치센터
1289,1289,서강지구대,37.5473186,126.9292892,서울특별시 마포구 독막로22길 8,경찰서
1290,1290,서교동주민센터,37.5562044,126.9199436,서울특별시 마포구 월드컵북로  15,지역자치센터
1291,1291,서교우체국,37.550367,126.9156581,서울특별시 마포구 양화로  62,우체국
1292,1292,서대문경찰서,37.5649018,126.9667851,서울특별시 서대문구 통일로  113,경찰서
1293,1293,서대문경찰서(교통센터),37.5716276,126.96013959999999,서울특별시 서대문구 성산로  704,경찰서
1294,1294,서대문구청,37.579225,126.9368,서울특별시 서대문구 연희로 248,지역자치센터
1295,1295,서대문보건소(서대문구청 별관),37.578629,126.93630859999999,서울특별시 서대문구 연희로 242,보건소
1296,1296,서림동주민센터,37.4750216,126.93502179999999,서울특별시 관악구 신림로29길 6,지역자치센터
1297,1297,서울과학기술대학우체국,37.6330789,127.07679509999998,서울특별시 노원구 공릉로 232,우체국
1298,1298,서울광진경찰서 중곡2지구대,37.563719799999994,127.0827888,서울특별시 광진구 능동로 385,경찰서
1299,1299,서울금천우체국,37.470121899999995,126.89848190000001,서울특별시 금천구 시흥대로 410,우체국
1300,1300,서울서부지법우체국,37.54899520000001,126.9554886,서울특별시 마포구 마포대로 174,우체국
1301,1301,서울여대우체국(누리관1층),37.628032899999994,127.09042350000001,서울특별시 노원구 화랑로 621,우체국
1302,1302,서울중곡동우체국,37.5615297,127.0832682,서울특별시 광진구 긴고랑로 68,우체국
1303,1303,서울중화동우체국,37.6005284,127.08002920000001,서울특별시 중랑구 동일로 784,우체국
1304,1304,서원동주민센터,37.48721670000001,126.956608,서울특별시 관악구 관악로 255-7,지역자치센터
1305,1305,서이지구대,37.4923165,127.02821090000002,서울특별시 서초구 효령로77길 37,경찰서
1306,1306,서초1동주민센터,37.488812599999996,127.0190463,서울특별시 서초구 사임당로18길  18,지역자치센터
1307,1307,서초3동주민센터,37.483593799999994,127.0125116,서울특별시 서초구 반포대로10길 10,지역자치센터
1308,1308,서초3파출소,37.492002299999996,127.0108098,서울특별시 서초구 반포대로30길 40,경찰서
1309,1309,서초4동주민센터,37.5026745,127.02218429999999,서울특별시 서초구 서운로26길 3,지역자치센터
1310,1310,서초동우체국,37.4890715,127.00865459999999,서울특별시 서초구 반포대로 99,우체국
1311,1311,석관동주민센터,37.6129857,127.06143429999999,서울특별시 성북구 화랑로 296,지역자치센터
1312,1312,석관우체국,37.6087688,127.0524638,서울특별시 성북구 화랑로 203,우체국
1313,1313,석관지구대,37.608988599999996,127.05523159999998,서울특별시 성북구 화랑로32가길 20,경찰서
1314,1314,성내 우체국,37.5289339,127.124377,서울특별시 강동구 성내로 38,우체국
1315,1315,성내2 치안센터,37.535009,127.1246353,서울특별시 강동구 천호옛길 68-1,경찰서
1316,1316,성내2동 주민센터,37.5324318,127.1295521,서울특별시 강동구 풍성로37가길 62,지역자치센터
1317,1317,성내3동 주민센터,37.5260433,127.1329014,서울특별시 강동구 강동대로53길 76,지역자치센터
1318,1318,성동우체국,37.5608698,127.034709,서울특별시 성동구 왕십리로  303,우체국
1319,1319,성북구청,37.5894674,127.0168503,서울특별시 성북구 보문로  168,지역자치센터
1320,1320,성북동주민센터,37.590814200000004,127.00350619999999,서울특별시 성북구 성북로 33,지역자치센터
1321,1321,성북우체국,37.6072897,127.0294028,서울특별시 성북구 동소문로  310,우체국
1322,1322,성북파출소,37.59327879999999,126.99847549999998,서울특별시 성북구 성북로 94,경찰서
1323,1323,성산1동주민센터,37.5633781,126.907908,서울특별시 마포구 성산로4길  15,지역자치센터
1324,1324,성산1동치안센터,37.56228,126.9154963,서울특별시 마포구 월드컵북로12길 27,경찰서
1325,1325,성산2동우체국,37.56956029999999,126.90352469999999,서울특별시 마포구 월드컵북로 227,우체국
1326,1326,성산2동주민센터,37.568619399999996,126.9090202,서울특별시 마포구 월드컵북로30길 22,지역자치센터
1327,1327,성산우체국,37.5634026,126.91387160000001,서울특별시 마포구 월드컵북로  112,우체국
1328,1328,성수1가1동주민센터,37.54190300000001,127.04967279999998,서울특별시 성동구 뚝섬로3길 18,지역자치센터
1329,1329,성수1가2동주민센터,37.5467331,127.04425900000001,서울특별시 성동구 왕십리로5길   3,지역자치센터
1330,1330,성수1가치안센터,37.5396693,127.0512257,서울특별시 성동구 뚝섬로 364-1,경찰서
1331,1331,성수2가1동주민센터,37.539545600000004,127.0540459,서울특별시 성동구 뚝섬로  385-19,지역자치센터
1332,1332,성수2가3동주민센터,37.54823,127.0552502,서울특별시 성동구 광나루로2길  35,지역자치센터
1333,1333,성수서울숲지구대,37.5380685,127.05227450000001,서울특별시 성동구 성덕정길 77-2,경찰서
1334,1334,성현동 주민센터,37.48953529999999,126.9481613,서울특별시 관악구 구암길 38,지역자치센터
1335,1335,세검정 우체국,37.6014191,126.9612784,서울특별시 종로구 세검정로 258,우체국
1336,1336,솔샘지구대,37.61631060000001,127.03040759999999,서울특별시 강북구 오현로 4,경찰서
1337,1337,송정동주민센터,37.5545203,127.0695585,서울특별시 성동구 동일로43길   13,지역자치센터
1338,1338,송중동주민센터,37.616129799999996,127.0337939,서울특별시 강북구 오패산로 162,지역자치센터
1339,1339,송천동 우체국,37.6155006,127.0295904,서울특별시 강북구 도봉로 71,우체국
1340,1340,송파2동주민센터,37.502241999999995,127.1167017,서울특별시 송파구 송이로 32,지역자치센터
1341,1341,송파경찰서,37.50185310000001,127.1269643,서울특별시 송파구 중대로 221,경찰서
1342,1342,송파구청,37.5145636,127.1059186,서울특별시 송파구 올림픽로 326,지역자치센터
1343,1343,송파우체국,37.5025526,127.12804320000001,서울특별시 송파구 오금로  323,우체국
1344,1344,수공치안센터,37.4934819,126.8189197,서울특별시 구로구 부일로1길  68,경찰서
1345,1345,수궁동주민센터,37.493928499999996,126.83146599999999,서울특별시 구로구 오리로15길 32,지역자치센터
1346,1346,수락산우체국,37.67967410000001,127.0548125,서울특별시 노원구 동일로 1693-6,우체국
1347,1347,수서 파출소,37.48914370000001,127.10484450000001,서울특별시 강남구 밤고개로1길  48,경찰서
1348,1348,수서경찰서,37.4982938,127.0301058,서울특별시 강남구 테헤란로 114,경찰서
1349,1349,수서동 우체국,37.48871010000001,127.10505049999999,서울특별시 강남구 광평로  303,우체국
1350,1350,수유1동지구대,37.63068320000001,127.01759890000001,서울특별시 강북구 삼양로 305,경찰서
1351,1351,수유2동주민센터,37.644644,127.01991409999998,서울특별시 강북구 한천로 1117,지역자치센터
1352,1352,수유2동지구대,37.640922700000004,127.0171031,서울특별시 강북구 삼각산로 115,경찰서
1353,1353,수유3동우체국,37.6412268,127.02867759999998,서울특별시 강북구 도봉로 383,우체국
1354,1354,수유3동주민센터,37.638714,127.0231675,서울특별시 강북구 노해로 36,지역자치센터
1355,1355,수유동우체국,37.6449477,127.0160021,서울특별시 강북구 삼양로 468,우체국
1356,1356,숭미파출소,37.6475098,127.0256055,서울특별시 도봉구 노해로  139,경찰서
1357,1357,숭인1동사무소,37.5778223,127.01563780000001,서울특별시 종로구 지봉로 86,지역자치센터
1358,1358,숭인2동주민센터,37.5748916,127.01997490000001,서울특별시 종로구 종로65길 10,지역자치센터
1359,1359,숭인우체국,37.5780162,127.0155781,서울특별시 종로구 지봉로 88,우체국
1360,1360,시립대학교우체국,37.583634,127.058858,서울특별시 동대문구 서울시립대로  163,우체국
1361,1361,시흥2동 주민센터,37.4501472,126.9165675,서울특별시 금천구 금하로 783,지역자치센터
1362,1362,시흥3동주민센터,37.44027620000001,126.905805,서울특별시 금천구 시흥대로18길 40,지역자치센터
1363,1363,시흥4동 청사,37.458988500000004,126.9061819,서울특별시 금천구 독산로36길 14,경찰서
1364,1364,시흥5동주민센터,37.4524094,126.90831000000001,서울특별시 금천구 금하로21길  20,지역자치센터
1365,1365,시흥우체국,37.4531528,126.90071909999999,서울특별시 금천구 시흥대로 217,우체국
1366,1366,신길3동주민센터,37.5073051,126.9077562,서울특별시 영등포구 신길로41라길 13-8,지역자치센터
1367,1367,신길4동주민센터,37.50845770000001,126.9112917,서울특별시 영등포구 신길로42길 1,지역자치센터
1368,1368,신길5동주민센터,37.5016643,126.9052154,서울특별시 영등포구 도림로 264,지역자치센터
1369,1369,신길5치안센터,37.500670299999996,126.9077885,서울특별시 영등포구 신길로23길  12,경찰서
1370,1370,신길6동주민센터,37.4993833,126.90985049999999,서울특별시 영등포구 대방천로 169,지역자치센터
1371,1371,신길7동주민센터,37.5063965,126.9215331,서울특별시 영등포구 여의대방로43길  10,지역자치센터
1372,1372,신길우체국,37.501605100000006,126.9205665,서울특별시 영등포구 여의대방로  161,우체국
1373,1373,신길지구대,37.51342460000001,126.91419170000002,서울특별시 영등포구 신길로60다길  16,경찰서
1374,1374,신내1동주민센터,37.605874299999996,127.09950970000001,서울특별시 중랑구 용마산로129나길 35,지역자치센터
1375,1375,신내2동관상복합청사,37.606266399999996,127.09418290000002,서울특별시 중랑구 봉화산로  190,경찰서
1376,1376,신내동우체국,37.617059999999995,127.09049569999999,서울특별시 중랑구 신내로17길 112,우체국
1377,1377,신당2동주민센터,37.554329700000004,127.0082717,서울특별시 중구 동호로15길 50,지역자치센터
1378,1378,신당3동주민센터,37.5621268,127.01455130000001,서울특별시 중구 다산로 211,지역자치센터
1379,1379,신당4동주민센터,37.552465999999995,127.00900970000001,서울특별시 중구 다산로 92,지역자치센터
1380,1380,신당5동주민센터,37.5570686,127.014702,서울특별시 중구 청구로3길 55,지역자치센터
1381,1381,신당6동사무소,37.5599854,127.01943270000001,서울특별시 중구 다산로36길 100,지역자치센터
1382,1382,신당동 우체국,37.568008,126.97999009999998,서울특별시 중구 다동길 11,우체국
1383,1383,신당동파출소,37.563613200000006,126.983956,서울특별시 중구 명동길 30,경찰서
1384,1384,신대방1동주민센터,37.4889576,126.9100406,서울특별시 동작구 신대방길 72,지역자치센터
1385,1385,신도림주민센터,37.5077664,126.88058259999998,서울특별시 구로구 신도림로 40,지역자치센터
1386,1386,신림동우체국,37.4691565,126.9399737,서울특별시 관악구 대학5길 38,우체국
1387,1387,신림본부치안센터,37.4794611,126.9263962,서울특별시 관악구 문성로25길 12-15,경찰서
1388,1388,신림지구대치안센터,37.481901,126.9292613,서울특별시 관악구 신원로 36,경찰서
1389,1389,신문로파출소,37.570765,126.9722361,서울특별시 종로구 경희궁길 6-3,경찰서
1390,1390,신방학파출소,37.6584966,127.0271422,서울특별시 도봉구 시루봉로5길  10,경찰서
1391,1391,신사1동 주민센터,37.5978051,126.9117825,서울특별시 은평구 은평로2길 2,지역자치센터
1392,1392,신사2동주민센터,37.590284000000004,126.90823859999999,서울특별시 은평구 증산로15길 47,지역자치센터
1393,1393,신사동 지구대(구 압구동 지구대),37.5183792,127.0241554,서울특별시 강남구 도산대로  143,경찰서
1394,1394,신사동주민센터,37.485427,126.9181185,서울특별시 관악구 조원로 142,지역자치센터
1395,1395,신사파출소,37.4872873,126.9142055,서울특별시 관악구 신사로 106,경찰서
1396,1396,신수동복합청사,37.547156,126.9351325,서울특별시 마포구 독막로 192,경찰서
1397,1397,신원동주민센터,37.483690700000004,126.9376152,서울특별시 관악구 남부순환로198길 7,지역자치센터
1398,1398,신월1동주민센터,37.5328174,126.8315267,서울특별시 양천구 곰달래로1길 38,지역자치센터
1399,1399,신월2동우체국,37.545089600000004,126.86261129999998,서울특별시 양천구 등촌로 172,우체국
1400,1400,신월2동주민센터,37.5249769,126.8445728,서울특별시 양천구 중앙로53길 47,지역자치센터
1401,1401,신월3동주민센터,37.5336352,126.8290833,서울특별시 양천구 남부순환로54길 5,지역자치센터
1402,1402,신월4동주민센터(신월정보문화센터),37.5246979,126.84009109999998,서울특별시 양천구 오목로5길 34,지역자치센터
1403,1403,신월5동주민센터,37.5385791,126.8271622,서울특별시 양천구 화곡로4길 10,지역자치센터
1404,1404,신월5동파출소,37.5390745,126.83068909999999,서울특별시 양천구 남부순환로31길 37,경찰서
1405,1405,신월6동주민센터,37.5161008,126.8437037,서울특별시 양천구 신남3길 6,지역자치센터
1406,1406,신월7동주민센터,37.521876,126.83473529999999,서울특별시 양천구 남부순환로70길 16-3,지역자치센터
1407,1407,신정1동우체국,37.5218826,126.86198780000001,서울특별시 양천구 신월로 368,우체국
1408,1408,신정1동주민센터,37.518581299999994,126.85429750000002,서울특별시 양천구 중앙로32길 1,지역자치센터
1409,1409,신정1동지구대,37.5202816,126.8607737,서울특별시 양천구 중앙로32길 65,경찰서
1410,1410,신정2동주민센터,37.519143299999996,126.8705311,서울특별시 양천구 목동동로 152,지역자치센터
1411,1411,신정2지구대,37.524452399999994,126.8635757,서울특별시 양천구 목동로17길 5,경찰서
1412,1412,신정3동우체국,37.5346743,126.8287317,서울특별시 양천구 남부순환로 364,우체국
1413,1413,신정3동주민센터,37.515156899999994,126.8547793,서울특별시 양천구 중앙로 209,지역자치센터
1414,1414,신정4동주민센터,37.5234464,126.8587887,서울특별시 양천구 은행정로11가길 8,지역자치센터
1415,1415,신정7동주민센터,37.5144202,126.8596862,서울특별시 양천구 목동동로 37,지역자치센터
1416,1416,신창파출소,37.6435183,127.0346132,서울특별시 도봉구 도봉로104길 49-5,경찰서
1417,1417,신촌동주민센터,37.5595602,126.94351780000001,서울특별시 서대문구 이화여대길 92-8,지역자치센터
1418,1418,신촌우체국,37.556938,126.94388959999999,서울특별시 서대문구 신촌로 161,우체국
1419,1419,신촌지구대,37.55806550000001,126.9292926,서울특별시 서대문구 신촌로 22,경찰서
1420,1420,쌍문1동주민센터,37.6480434,127.0260804,서울특별시 도봉구 노해로 147,지역자치센터
1421,1421,쌍문1동치안센터,37.6500987,127.02014709999999,서울특별시 도봉구 우이천로 401,경찰서
1422,1422,쌍문2동우체국,37.6563989,127.0375771,서울특별시 도봉구 도봉로125길   88,우체국
1423,1423,쌍문2동치안센터,37.6575951,127.0381017,서울특별시 도봉구 방학로3길 132,경찰서
1424,1424,쌍문3동주민센터,37.6489894,127.02793159999999,서울특별시 도봉구 노해로44길   9,지역자치센터
1425,1425,아현동주민센터,37.5471119,126.9521692,서울특별시 마포구 마포대로7길 18,지역자치센터
1426,1426,아현우체국,37.557083,126.9551443,서울특별시 마포구 신촌로 266,우체국
1427,1427,아현치안센터,37.5519634,126.9541163,서울특별시 마포구 마포대로 197,경찰서
1428,1428,안국우체국,37.5760977,126.99592109999999,서울특별시 종로구 율곡로 155,우체국
1429,1429,안암지구대,37.58675039999999,127.01660420000002,서울특별시 성북구 지봉로21길  45,경찰서
1430,1430,암사2동 주민자치센터,37.5517143,127.1272846,서울특별시 강동구 상암로3길 28,지역자치센터
1431,1431,암사3동 주민센터,37.5549947,127.1408155,서울특별시 강동구 고덕로 137,지역자치센터
1432,1432,압구정동 문화센터,37.5273049,127.03576570000001,서울특별시 강남구 언주로172길 26,지역자치센터
1433,1433,약수지구대,37.5650496,127.0163878,서울특별시 중구 다산로 248,경찰서
1434,1434,양재1동주민센터,37.4716896,127.02668159999999,서울특별시 서초구 바우뫼로 41,지역자치센터
1435,1435,양재2동주민센터,37.47064500000001,127.041283,서울특별시 서초구 강남대로12길 44,지역자치센터
1436,1436,양재동우체국,37.4847287,127.03778670000001,서울특별시 서초구 남부순환로356길 5,우체국
1437,1437,양재지구대,37.48454570000001,127.03785549999999,서울특별시 서초구 남부순환로356길 9,경찰서
1438,1438,양천경찰서,37.51655220000001,126.8655457,서울특별시 양천구 목동동로 99,경찰서
1439,1439,양천구청,37.517061,126.86654879999999,서울특별시 양천구 목동동로 105,지역자치센터
1440,1440,양천우체국,37.532936,126.87623870000002,서울특별시 양천구 목동서로 117,우체국
1441,1441,양평1동주민센터,37.5236439,126.88823290000002,서울특별시 영등포구 영등포로11길 12,지역자치센터
1442,1442,여의도동 주민센터,37.5176984,126.93462179999999,서울특별시 영등포구 국제금융로 124,지역자치센터
1443,1443,여의도우체국,37.5223437,126.92625759999999,서울특별시 영등포구 여의나루로 60,우체국
