,lat,lon,place_name,total_facility_available_name,large_range_category
45088,37.606218,127.09418899999999,봉화산주차장 화장실 화장실,장애인용 화장실,화장실
45435,37.6165543,127.05659779999999,장위3동 주민센터 화장실,장애인용 화장실,화장실
45085,37.463149,126.90603899999999,남부여성주차장 화장실 화장실,장애인용 화장실,화장실
45266,37.6066874,127.0272767,길음2동 주민센터 화장실,장애인용 화장실,화장실
45437,37.6128385,127.05600659999999,장위실버복지센터 화장실,장애인용 화장실,화장실
45441,37.6014316,127.01662830000001,정릉1동 주민센터 화장실,장애인용 화장실,화장실
45316,37.60767910000001,127.00986270000001,정릉주유소 (주)삼표에너지 화장실,장애인용 화장실,화장실
45433,37.6123831,127.05447959999998,장위2동 주민센터 화장실,장애인용 화장실,화장실
45265,37.60428510000001,127.02428490000001,길음1동분소화장실 화장실,장애인용 화장실,화장실
45431,37.614062200000006,127.0436497,장위1동 주민센터 화장실,장애인용 화장실,화장실
45351,37.589400299999994,127.0075162,삼성동 맥도날드 화장실,장애인용 화장실,화장실
45447,37.6089493,127.0041598,정릉3동 주민센터 화장실,장애인용 화장실,화장실
45486,37.5929441,127.0086314,해오름도서관화장실 화장실,장애인용 화장실,화장실
45068,37.534288000000004,126.965325,용산주차빌딩 화장실 화장실,장애인용 화장실,화장실
45489,37.5957709,127.0359956,(주)중앙에너비스 종암지점 화장실,장애인용 화장실,화장실
45495,37.5831742,127.0201909,SK네트웍스(주) 광덕주유소 화장실,장애인용 화장실,화장실
45498,37.6002049,127.07320130000001,중화동 공중화장실 화장실,장애인용 화장실,화장실
45278,37.6075901,127.0303879,뉴타운장례식장 화장실,장애인용 화장실,화장실
45281,37.6051512,127.03091609999998,달빛마루도서관 화장실 화장실,장애인용 화장실,화장실
45289,37.6146774,127.04096609999999,동방고개 공영주차장 화장실,장애인용 화장실,화장실
45501,37.5812836,127.08012,면목동 공중화장실 화장실,장애인용 화장실,화장실
45504,37.5941269,127.10962520000001,망우동 공중화장실 화장실,장애인용 화장실,화장실
45286,37.598010200000004,127.0105959,돈암2동 주민센터 화장실,장애인용 화장실,화장실
45063,37.573397,126.975866,세종로공영주차장화장실 화장실,장애인용 화장실,화장실
45509,37.6145471,127.1009378,신내동 공중화장실 화장실,장애인용 화장실,화장실
45057,37.574496,126.994045,종묘공영주차장 화장실 화장실,장애인용 화장실,화장실
45513,37.6161311,127.0736929,묵동 공중화장실 화장실,장애인용 화장실,화장실
45516,37.518519500000004,126.88652820000001,문래동 화장실,장애인용 화장실,화장실
45283,37.6034115,127.0263571,돈암1동 주민센터 화장실,장애인용 화장실,화장실
45519,37.5145502,126.90422190000001,쪽방촌 화장실,장애인용 화장실,화장실
45522,37.533159399999995,126.9064683,강마을공원 화장실,장애인용 화장실,화장실
45529,37.5296691,126.8978686,당산4가 화장실,장애인용 화장실,화장실
45536,37.5224717,126.90108670000001,조광시장 화장실,장애인용 화장실,화장실
45483,37.6207617,127.0525915,한천로 공영주차장 화장실,장애인용 화장실,화장실
45446,37.6044598,127.0111212,정릉2동 주민센터 화장실,장애인용 화장실,화장실
45071,37.519465000000004,126.902608,영남주차장 화장실 화장실,장애인용 화장실,화장실
45294,37.593976299999994,127.0203947,동선동 주민센터 화장실,장애인용 화장실,화장실
45083,37.53879000000001,126.942649,마포유수지 화장실 화장실,장애인용 화장실,화장실
45450,37.6133712,127.00698590000002,정릉4동 주민센터 화장실,장애인용 화장실,화장실
45314,37.6126901,127.00663610000001,정릉4동 교통광장 화장실,장애인용 화장실,화장실
45269,37.6040969,127.02581979999998,길음환승주차장 화장실,장애인용 화장실,화장실
45453,37.6046434,127.01085259999998,정릉도서관화장실 화장실,장애인용 화장실,화장실
45313,37.618903100000004,127.00555020000002,정릉1호 화장실,장애인용 화장실,화장실
45455,37.604263399999994,127.0113523,정릉빌딩 화장실,장애인용 화장실,화장실
45308,37.6037377,127.0439761,장위주유소 화장실,장애인용 화장실,화장실
45081,37.4866,126.83888999999999,천왕역환승센터 화장실 화장실,장애인용 화장실,화장실
45272,37.6114565,127.0138462,꿈마루도서관화장실 화장실,장애인용 화장실,화장실
45458,37.60823660000001,127.00464040000001,정릉실버복지센터 화장실,장애인용 화장실,화장실
45275,37.583735600000004,127.01991840000001,노동사목빌딩 화장실,장애인용 화장실,화장실
45303,37.6132641,127.0606212,장위가스 화장실,장애인용 화장실,화장실
45461,37.6037175,127.0430439,정평빌딩 화장실,장애인용 화장실,화장실
45076,37.577917,126.798208,개화역환승센터 화장실 화장실,장애인용 화장실,화장실
45464,37.6063894,127.03641809999999,제일빌딩 화장실,장애인용 화장실,화장실
45074,37.638085,126.919142,구파발역환승센터 화장실 화장실,장애인용 화장실,화장실
45470,37.5989907,127.03509209999999,종암동새날도서관 화장실 화장실,장애인용 화장실,화장실
45298,37.6194213,127.05406229999998,장위3동마을마당 화장실,장애인용 화장실,화장실
45473,37.61174260000001,127.0107524,청수도서관 화장실 화장실,장애인용 화장실,화장실
45475,37.6088594,127.01006809999998,청수프라자 화장실,장애인용 화장실,화장실
45478,37.6019991,127.01835829999999,커뮤니티센터 화장실,장애인용 화장실,화장실
45467,37.5990276,127.0352053,종암동 주민센터 화장실,장애인용 화장실,화장실
45246,37.5871061,127.02634109999998,고려대학교 안암병원 장례식장 화장실,장애인용 화장실,화장실
45319,37.5795083,127.0245313,제삼주유소 화장실,장애인용 화장실,화장실
45153,37.6105396,126.9939893,북악숲속 화장실,장애인용 화장실,화장실
45206,37.6203186,127.0532784,우이천 화장실,장애인용 화장실,화장실
45369,37.60692120000001,127.03066470000002,성가복지병원 화장실,장애인용 화장실,화장실
45337,37.593691299999996,127.01770959999999,롯데리아 성신여대점 화장실,장애인용 화장실,화장실
45148,37.5963421,127.02854769999999,북선 화장실,장애인용 화장실,화장실
45143,37.584858600000004,127.01991059999999,보문동 화장실,장애인용 화장실,화장실
45210,37.6079876,127.03029009999999,우일에너지 화장실,장애인용 화장실,화장실
45371,37.5936034,127.0157368,성북구 보건소 보건지소 화장실,장애인용 화장실,화장실
45138,37.6048579,127.0327834,모랫말근린공원 화장실 화장실,장애인용 화장실,화장실
45373,37.5948311,126.99487140000002,성북구립미술관 화장실 화장실,장애인용 화장실,화장실
45133,37.5829573,127.02035409999999,동일주유소 화장실,장애인용 화장실,화장실
45213,37.60919129999999,127.0100281,원천제1주유소 화장실,장애인용 화장실,화장실
45376,37.5856452,127.00744040000001,성북구민정보화센터 화장실,장애인용 화장실,화장실
45378,37.6099679,127.04194840000002,성북구민체육관 화장실 화장실,장애인용 화장실,화장실
45216,37.6066402,127.0343461,월곡1동 화장실,장애인용 화장실,화장실
45380,37.5894505,127.0168346,성북구청 화장실,장애인용 화장실,화장실
45130,37.59789470000001,127.02132209999999,돈암마을마당 화장실,장애인용 화장실,화장실
45336,37.6033305,127.0354101,효성주유소 화장실,장애인용 화장실,화장실
45222,37.6119091,127.0397597,월곡광장 화장실,장애인용 화장실,화장실
45366,37.58173729999999,127.02767220000001,석탑빌딩 화장실,장애인용 화장실,화장실
45159,37.6208844,127.00667340000001,북한산생태숲화장실 화장실,장애인용 화장실,화장실
45340,37.6134445,127.0656074,미리내도서관화장실 화장실,장애인용 화장실,화장실
45203,37.60852020000001,127.0430126,오동근린공원화장실 화장실,장애인용 화장실,화장실
45185,37.5927439,126.99124920000001,성북성터 화장실,장애인용 화장실,화장실
45189,37.587666299999995,127.01837420000001,성북주유소 화장실,장애인용 화장실,화장실
45182,37.595145,127.00759579999999,성북근린공원화장실 화장실,장애인용 화장실,화장실
45349,37.5908399,127.0146256,삼선동 주민센터 화장실,장애인용 화장실,화장실
45179,37.59632620000001,126.9936904,성북2동 화장실,장애인용 화장실,화장실
45192,37.6088433,127.02924809999999,세창주유소 화장실,장애인용 화장실,화장실
45354,37.6058467,127.0482662,상월곡실버복지센터 화장실,장애인용 화장실,화장실
45176,37.607231299999995,127.05056370000001,새천년주유소 화장실,장애인용 화장실,화장실
45195,37.61347420000001,127.03816470000001,신동방석유㈜ 화장실,장애인용 화장실,화장실
45383,37.5977829,127.03439209999999,성북노인종합복지관 화장실,장애인용 화장실,화장실
45346,37.6025791,126.99802079999999,북악골프 화장실,장애인용 화장실,화장실
45173,37.6091998,127.0454537,상월곡동 화장실,장애인용 화장실,화장실
45342,37.580368299999996,127.02278740000001,보문동주민센터 화장실,장애인용 화장실,화장실
45167,37.587976399999995,127.00552140000002,삼선주유소 화장실,장애인용 화장실,화장실
45197,37.606899799999994,127.05007309999999,신명에너지㈜ 화랑로주유소 화장실,장애인용 화장실,화장실
45360,37.608760499999995,127.0524081,석관동 우체국 화장실,장애인용 화장실,화장실
45162,37.5832289,127.01037659999999,삼선어린이공원 화장실 화장실,장애인용 화장실,화장실
45200,37.58559210000001,127.02172309999999,안암동 화장실,장애인용 화장실,화장실
45362,37.6129659,127.0614051,석관동 주민센터 화장실,장애인용 화장실,화장실
45364,37.6067055,127.05822830000001,석관실버복지센터화장실 화장실,장애인용 화장실,화장실
45357,37.578683500000004,127.0226131,서광빌딩 화장실,장애인용 화장실,화장실
45428,37.6054844,127.05769709999998,의릉관리사무소 화장실,장애인용 화장실,화장실
45333,37.6078619,127.0507216,화랑주유소 화장실,장애인용 화장실,화장실
45386,37.59104620000001,127.00323290000001,성북동 주민센터 화장실,장애인용 화장실,화장실
45410,37.6003222,127.01387509999999,아리랑시네센터화장실 화장실,장애인용 화장실,화장실
45323,37.6149534,127.05274920000001,㈜진영와이엔제이 원천주유소 화장실,장애인용 화장실,화장실
45102,37.6215551,127.0518436,SK네트웍스(주) 한천로주유소 화장실,장애인용 화장실,화장실
45249,37.5958695,127.0086976,구민회관 공공 화장실 화장실,장애인용 화장실,화장실
45412,37.60567260000001,127.0379341,아이조아팀 화장실,장애인용 화장실,화장실
45099,37.6136312,127.06019840000002,SK네트웍스(주) 장삼주유소 화장실,장애인용 화장실,화장실
45251,37.6055321,127.01163659999999,금영빌딩 화장실,장애인용 화장실,화장실
45415,37.5844206,127.0230499,안암동주민센터 화장실,장애인용 화장실,화장실
45417,37.6122062,127.05871440000001,온누리병원 화장실,장애인용 화장실,화장실
45096,37.6005313,127.01419879999999,SK네트웍스(주) 아리랑주유소 화장실,장애인용 화장실,화장실
45419,37.5849739,127.0310592,우신향병원 구관동 화장실,장애인용 화장실,화장실
45257,37.6053737,127.0248645,기린빌딩 화장실,장애인용 화장실,화장실
45093,37.605566700000004,127.0085108,SK네트웍스(주) 북악주유소 화장실,장애인용 화장실,화장실
45259,37.6104808,127.0194382,길음1동 주민센터 화장실,장애인용 화장실,화장실
45320,37.6015316,127.0389111,종암2동마을마당 화장실,장애인용 화장실,화장실
45422,37.61053010000001,127.03574409999999,월곡1동 주민센터 화장실,장애인용 화장실,화장실
45091,37.475302,126.98376299999998,사당주차장 화장실 화장실,장애인용 화장실,화장실
45424,37.6057725,127.04785349999999,월곡2동 주민센터 화장실,장애인용 화장실,화장실
45426,37.60702720000001,127.0383416,월곡두산위브 센츠로 상가 화장실,장애인용 화장실,화장실
45408,37.6000539,127.0139127,아리랑도서관화장실 화장실,장애인용 화장실,화장실
45324,37.6132024,127.0708087,중랑천 이동식 화장실,장애인용 화장실,화장실
45104,37.616609499999996,127.04139380000001,SK에너지(주) 드림랜드주유소 화장실,장애인용 화장실,화장실
45326,37.5779421,127.02278419999999,중앙알뜰주유소 화장실,장애인용 화장실,화장실
45228,37.6206238,127.05247959999998,장위3동 화장실,장애인용 화장실,화장실
45389,37.5900467,127.00410759999998,성북예술창작터 화장실 화장실,장애인용 화장실,화장실
45331,37.602964799999995,127.0376475,화랑로 화장실,장애인용 화장실,화장실
45392,37.6046133,127.04575430000001,성북장애인복지관 화장실,장애인용 화장실,화장실
45232,37.617110600000004,127.05327220000001,장위3동 마을공원 화장실 화장실,장애인용 화장실,화장실
45395,37.6049953,127.0507256,성북정보도서관화장실 화장실,장애인용 화장실,화장실
45398,37.6102064,127.06998020000002,성북종합레포츠타운 화장실,장애인용 화장실,화장실
45234,37.5944763,126.99126570000001,강촌쌈밥 화장실,장애인용 화장실,화장실
45122,37.6027771,127.0320297,그린에너지(주)직영 종암주유소 화장실,장애인용 화장실,화장실
45127,37.5800534,127.0230236,꿈나라어린이공원 화장실 화장실,장애인용 화장실,화장실
45235,37.596861600000004,127.0262231,개운산스포츠센터 화장실,장애인용 화장실,화장실
45400,37.5971101,127.03567759999999,성북중앙병원신관동 화장실,장애인용 화장실,화장실
45113,37.598114100000004,127.0253905,개운산근린공원화장실 화장실,장애인용 화장실,화장실
45403,37.6002789,127.02159909999999,성심빌딩 화장실,장애인용 화장실,화장실
45109,37.5855374,127.0317962,신방주유소 화장실,장애인용 화장실,화장실
45328,37.5916533,127.0366064,현대오일뱅크㈜ 직영현대셀프주유소 고대점 화장실,장애인용 화장실,화장실
45239,37.5921696,127.03668789999999,거산프라자 화장실,장애인용 화장실,화장실
45106,37.6010584,127.02156129999999,SK에너지(주) 미도주유소 화장실,장애인용 화장실,화장실
45242,37.5856336,127.0138501,경동고 공영주차장 화장실,장애인용 화장실,화장실
45405,37.59911620000001,127.0145912,시네마빌딩화장실 화장실,장애인용 화장실,화장실
45117,37.5919857,127.0360382,고려주유소 화장실,장애인용 화장실,화장실
45156,37.6044281,127.0072894,북한산 에코체험관 화장실 화장실,장애인용 화장실,화장실
40601,37.513018,127.11353600000001,송파근린공원 화장실 화장실,장애인용 화장실,화장실
45542,37.526730799999996,126.90339660000001,전화국 뒤-1 화장실,장애인용 화장실,화장실
46189,37.5349309,126.9027301,당산 화장실,장애인용 화장실,화장실
46192,37.5500077,126.91450390000001,합정 화장실,장애인용 화장실,화장실
46195,37.5567292,126.92364189999999,홍대입구 화장실,장애인용 화장실,화장실
46198,37.5546671,126.93749950000002,신촌 화장실,장애인용 화장실,화장실
46201,37.5568129,126.94771180000001,이대 화장실,장애인용 화장실,화장실
46206,37.5558896,126.95566090000001,아현 화장실,장애인용 화장실,화장실
46212,37.55949260000001,126.9638176,충정로 화장실,장애인용 화장실,화장실
46217,37.63753670000001,126.9185875,구파발 화장실,장애인용 화장실,화장실
46220,37.6188881,126.920832,연신내 화장실,장애인용 화장실,화장실
46223,37.610482899999994,126.9292884,불광 화장실,장애인용 화장실,화장실
46228,37.6007017,126.93600479999999,녹번 화장실,장애인용 화장실,화장실
46233,37.588671999999995,126.94422659999998,홍제 화장실,장애인용 화장실,화장실
46236,37.5823607,126.9504375,무악재 화장실,장애인용 화장실,화장실
46239,37.5743009,126.95591780000001,독립문 화장실,장애인용 화장실,화장실
46242,37.5758199,126.97305790000001,경복궁 화장실,장애인용 화장실,화장실
46247,37.57669600000001,126.98580359999998,안국 화장실,장애인용 화장실,화장실
46252,37.571195700000004,126.9919594,종로3가(3)(지하3층) 화장실,장애인용 화장실,화장실
46255,37.5664121,126.9941848,을지로3가(3) 화장실,장애인용 화장실,화장실
46258,37.5592266,127.005275,동대입구 화장실,장애인용 화장실,화장실
46261,37.554379499999996,127.01101640000002,약수 화장실,장애인용 화장실,화장실
46264,37.5480381,127.01588259999998,금호 화장실,장애인용 화장실,화장실
46267,37.5466746,127.01624479999998,옥수(3층 환승통로측) 화장실,장애인용 화장실,화장실
46270,37.569744,127.0469446,신답 화장실,장애인용 화장실,화장실
46273,37.523526399999994,127.0283255,압구정 화장실,장애인용 화장실,화장실
46276,37.5163915,127.02030729999998,신사 화장실,장애인용 화장실,화장실
46281,37.513081799999995,127.0118568,잠원 화장실,장애인용 화장실,화장실
46286,37.4866605,127.01521840000001,남부터미널 화장실,장애인용 화장실,화장실
46186,37.525656299999994,126.8966142,영등포구청 화장실,장애인용 화장실,화장실
46289,37.4847605,127.033371,양재 화장실,장애인용 화장실,화장실
46183,37.5178873,126.89475130000001,문래 화장실,장애인용 화장실,화장실
46176,37.5125175,126.8657108,양천구청 화장실,장애인용 화장실,화장실
46052,37.565281299999995,127.0166395,신당 화장실,장애인용 화장실,화장실
46059,37.5639331,127.02979309999999,상왕십리 화장실,장애인용 화장실,화장실
46062,37.5622586,127.03722759999998,왕십리 화장실,장애인용 화장실,화장실
46065,37.555259299999996,127.04365790000001,한양대 화장실,장애인용 화장실,화장실
46071,37.5471773,127.04738020000002,뚝섬 화장실,장애인용 화장실,화장실
46074,37.5446009,127.05688470000001,성수 화장실,장애인용 화장실,화장실
46077,37.5586888,127.05317240000002,용답 화장실,장애인용 화장실,화장실
46082,37.5738576,127.03798959999999,용두(내선 대합실) 화장실,장애인용 화장실,화장실
46085,37.5407487,127.06900139999999,건대입구 화장실,장애인용 화장실,화장실
46090,37.5382826,127.09075530000001,구의 화장실,장애인용 화장실,화장실
46093,37.5354211,127.09453300000001,강변 화장실,장애인용 화장실,화장실
46097,37.5186216,127.1049002,잠실나루 화장실,장애인용 화장실,화장실
46100,37.5176605,127.0746594,잠실 화장실,장애인용 화장실,화장실
46104,37.51156810000001,127.0906077,신천 화장실,장애인용 화장실,화장실
46107,37.508826299999996,127.0630673,삼성 화장실,장애인용 화장실,화장실
46113,37.4981284,127.02830300000001,역삼 화장실,장애인용 화장실,화장실
46118,37.4948466,127.0172856,교대(2) 화장실,장애인용 화장실,화장실
46126,37.492764799999996,127.01054140000001,서초 화장실,장애인용 화장실,화장실
46131,37.4812965,126.9973202,방배 화장실,장애인용 화장실,화장실
46139,37.4764838,126.9813957,사당(2)(방배역측) 화장실,장애인용 화장실,화장실
46143,37.4770283,126.96339590000001,낙성대 화장실,장애인용 화장실,화장실
46148,37.4811133,126.95263440000001,서울대입구 화장실,장애인용 화장실,화장실
46153,37.4825178,126.94148100000001,봉천 화장실,장애인용 화장실,화장실
46158,37.4841776,126.92978870000002,신림 화장실,장애인용 화장실,화장실
46163,37.4851265,126.9015288,구로디지털단지 화장실,장애인용 화장실,화장실
46169,37.50868670000001,126.8909033,신도림(게이트 내) 화장실,장애인용 화장실,화장실
46173,37.5144011,126.88268459999999,도림천 화장실,장애인용 화장실,화장실
46180,37.5182935,126.8536189,신정네거리 화장실,장애인용 화장실,화장실
46292,37.486940600000004,127.04662140000002,매봉 화장실,장애인용 화장실,화장실
46295,37.4908245,127.0553064,도곡 화장실,장애인용 화장실,화장실
46298,37.4945429,127.0634256,대치 화장실,장애인용 화장실,화장실
46410,37.5880209,127.0057966,한성대 화장실,장애인용 화장실,화장실
46413,37.4716635953,127.042356418,양재근린공원 화장실,장애인용 화장실,화장실
46416,37.4761184197,127.04170774299999,양재천근린공원 화장실,장애인용 화장실,화장실
46421,37.4732137508,127.029044613,생태놀이터 화장실,장애인용 화장실,화장실
46426,37.4631052316,127.025473349,섬들근린공원 화장실,장애인용 화장실,화장실
46429,37.4964776852,127.004043895,몽마르뜨공원 화장실,장애인용 화장실,화장실
46433,37.494255446,127.022941865,용허리근린공원 화장실,장애인용 화장실,화장실
46437,37.4587886437,127.01994709899999,송동근린공원 화장실,장애인용 화장실,화장실
46442,37.4454271408,127.05705518799999,청계산 공영주차장 화장실 화장실,장애인용 화장실,화장실
46446,37.4422097221,127.05493281700001,청계산 천개사 앞 화장실 화장실,장애인용 화장실,화장실
46450,37.4410075603,127.051388234,청계산 어둔골 화장실 화장실,장애인용 화장실,화장실
46453,37.4367393715,127.044949157,청계산 원터쉼터 화장실 화장실,장애인용 화장실,화장실
46458,37.434713322600004,127.062113585,청계산 청계골입구 화장실 화장실,장애인용 화장실,화장실
46463,37.4510053035,127.042046405,청계산 개나리골입구화장실 화장실,장애인용 화장실,화장실
46468,37.4633673051,127.058701034,구룡산 입구 화장실 화장실,장애인용 화장실,화장실
46473,37.482719932399995,127.033819575,말죽거리공원 화장실 화장실,장애인용 화장실,화장실
46476,37.482297673699996,127.02075383200001,우면산(서초약수터) 화장실,장애인용 화장실,화장실
46480,37.4760159064,127.020354147,우면산(예술바위 주변) 화장실,장애인용 화장실,화장실
46483,37.4707485433,127.001424374,우면산(신동아아파트 앞) 화장실,장애인용 화장실,화장실
46486,37.4623721833,126.988411864,우면산(남태령 정각사) 화장실,장애인용 화장실,화장실
46489,37.4745142947,127.010653946,우면산(소망탑 깔딱고개) 화장실,장애인용 화장실,화장실
46494,37.479596039,126.989915149,도구머리공원 화장실,장애인용 화장실,화장실
46497,37.5081943527,126.995634263,간이화장실 화장실,장애인용 화장실,화장실
46502,37.4727269304,126.992461925,방배배수지 체육공원 화장실,장애인용 화장실,화장실
46505,37.473464195,127.035750814,양재천수영장 화장실,장애인용 화장실,화장실
46508,37.4766230551,127.041509047,양재천(영동2교둑마루) 화장실,장애인용 화장실,화장실
46513,37.468269086,127.02871261799999,양재천무인자동화장실(교총삼거리둑마루) 화장실,장애인용 화장실,화장실
46407,37.4643638,126.9892695,남태령 화장실,장애인용 화장실,화장실
46404,37.4768251,126.98158329999998,사당(4)(지하1층 총신대역측) 화장실,장애인용 화장실,화장실
46401,37.487513799999995,126.9821618,총신대입구 화장실,장애인용 화장실,화장실
46398,37.5034647,126.97992649999999,동작 화장실,장애인용 화장실,화장실
46303,37.4966789,127.0717054,학여울 화장실,장애인용 화장실,화장실
46306,37.49368610000001,127.0794787,대청 화장실,장애인용 화장실,화장실
46311,37.4839534,127.08441270000002,일원 화장실,장애인용 화장실,화장실
46314,37.4873499,127.1018416,수서 화장실,장애인용 화장실,화장실
46317,37.4928982,127.1180582,가락시장(게이트 내) 화장실,장애인용 화장실,화장실
46321,37.4983224,127.1256757,경찰병원(게이트 내) 화장실,장애인용 화장실,화장실
46324,37.50324620000001,127.1263422,오금(게이트 내) 화장실,장애인용 화장실,화장실
46327,37.670556299999994,127.0793058,당고개(1층) 화장실,장애인용 화장실,화장실
46330,37.6610953,127.07352560000001,상계 화장실,장애인용 화장실,화장실
46333,37.6558674,127.06199109999999,노원 화장실,장애인용 화장실,화장실
46336,37.6488107,127.034866,쌍문 화장실,장애인용 화장실,화장실
46339,37.6397753,127.0272077,수유 화장실,장애인용 화장실,화장실
46344,37.6298777,127.02471409999998,미아 화장실,장애인용 화장실,화장실
46045,37.5657177,127.00848490000001,동대문역사문화공원(2) 화장실,장애인용 화장실,화장실
46347,37.6151041,127.03004609999999,미아사거리 화장실,장애인용 화장실,화장실
46353,37.5930482,127.01671359999999,성신여대 화장실,장애인용 화장실,화장실
46356,37.49250429999999,126.8949615,대림 화장실,장애인용 화장실,화장실
46359,37.581893,127.0019528,혜화 화장실,장애인용 화장실,화장실
46364,37.5703848,127.009529,동대문(4) 화장실,장애인용 화장실,화장실
46367,37.5644784,127.0071588,동대문역사문화공원(4)(지하1층) 화장실,장애인용 화장실,화장실
46370,37.56115910000001,126.994398,충무로 화장실,장애인용 화장실,화장실
46373,37.560822200000004,126.9853555,명동 화장실,장애인용 화장실,화장실
46378,37.5590295,126.9772521,회현 화장실,장애인용 화장실,화장실
46383,37.535982399999995,126.9713509,서울(4) 화장실,장애인용 화장실,화장실
46386,37.54552750000001,126.97196969999999,숙대입구 화장실,장애인용 화장실,화장실
46389,37.5343935,126.9730142,삼각지 화장실,장애인용 화장실,화장실
46392,37.5293642,126.96829850000002,신용산 화장실,장애인용 화장실,화장실
46395,37.5224811,126.9736707,이촌 화장실,장애인용 화장실,화장실
46350,37.60322539999999,127.02496470000001,길음 화장실,장애인용 화장실,화장실
46042,37.566488799999995,126.996528,을지로4가(2) 화장실,장애인용 화장실,화장실
46039,37.566171000000004,126.9902025,을지로3가(2) 화장실,장애인용 화장실,화장실
46036,37.5660664,126.9820222,을지로입구 화장실,장애인용 화장실,화장실
45687,37.529451588899995,127.126538169,성내하니 근린공원(경로당내) 화장실,장애인용 화장실,화장실
45692,37.562288622,127.178703416,게네수변공원(관리소내) 화장실,장애인용 화장실,화장실
45695,37.552127145,127.130578126,새장터어린이공원 화장실,장애인용 화장실,화장실
45698,37.5500206647,127.125545395,광나루어린이공원 화장실,장애인용 화장실,화장실
45703,37.5547065753,127.173375274,고덕찬 물놀이장(분수광장) 화장실,장애인용 화장실,화장실
45708,37.5675020544,127.16489292799999,고덕야구장 (고덕빗물펌프장) 화장실,장애인용 화장실,화장실
45711,37.5557385056,127.172562814,명일2지구대 뒤 화장실,장애인용 화장실,화장실
45714,37.5483666648,127.131943096,상일공원 화장실,장애인용 화장실,화장실
45717,37.5627434547,127.14680011799999,별장진잎로왼쪽 화장실,장애인용 화장실,화장실
45722,37.5657016898,127.150169894,별장앞 화장실,장애인용 화장실,화장실
45727,37.5598110635,127.167519859,민속의 집 화장실,장애인용 화장실,화장실
45730,37.5591585951,127.159826763,방죽공원 화장실,장애인용 화장실,화장실
45733,37.5612526321,127.14581024600001,산등성이목조식 화장실,장애인용 화장실,화장실
45736,37.5380500481,127.123787385,브라운스톤 천호 화장실,장애인용 화장실,화장실
45739,37.5343350876,127.13619059,홍익빌딩 화장실,장애인용 화장실,화장실
45742,37.5279894662,127.135296625,둔촌역재례시장 화장실,장애인용 화장실,화장실
45745,37.5268837217,127.134697301,파크프라장상가 화장실,장애인용 화장실,화장실
45748,37.5350702422,127.13933276200001,선린빌딩 화장실,장애인용 화장실,화장실
45751,37.534930623600005,127.138535981,동우빌딩 화장실,장애인용 화장실,화장실
45754,37.5346287619,127.13778868600001,중부빌딩 화장실,장애인용 화장실,화장실
45758,37.5352142686,127.13635964,일성오피스텔 화장실,장애인용 화장실,화장실
45762,37.5365858455,127.131365665,힐탑오피스텔 화장실,장애인용 화장실,화장실
45766,37.5372546436,127.129502195,트레벨오피스텔 화장실,장애인용 화장실,화장실
45769,37.5378953122,127.12695976399999,강동빌딩 화장실,장애인용 화장실,화장실
45772,37.5381085546,127.12639439,일동빌딩 화장실,장애인용 화장실,화장실
45775,37.5405535735,127.124977344,대우한강베네시티 화장실,장애인용 화장실,화장실
45778,37.5421682517,127.128256956,동서울 시장 화장실,장애인용 화장실,화장실
45681,37.5597414548,127.16831648799999,동명근린공원 (베드민턴장) 화장실,장애인용 화장실,화장실
45676,37.5614689326,127.164933959,두레근린공원 화장실,장애인용 화장실,화장실
45673,37.5618410456,127.159022104,샘터근린공원(게이트볼장) 화장실,장애인용 화장실,화장실
45670,37.5542406285,127.144710137,샛마을 근린공원 화장실,장애인용 화장실,화장실
45548,37.5128177,126.9260295,대방역 화장실,장애인용 화장실,화장실
45551,37.5161681,126.91540490000001,영등포여고앞 화장실,장애인용 화장실,화장실
45554,37.5149506,126.90571709999999,광야교회 화장실,장애인용 화장실,화장실
45559,37.514939399999996,126.9018973,철제상가 화장실,장애인용 화장실,화장실
45562,37.5139372,126.8859597,철공소공단 화장실,장애인용 화장실,화장실
45567,37.5242862,126.8847172,양평동2가-3 화장실,장애인용 화장실,화장실
45570,37.5240917,126.8846364,양평동2가-2 화장실,장애인용 화장실,화장실
45574,37.5243747,126.88483240000001,양평동2가-1 화장실,장애인용 화장실,화장실
45577,37.5239746,126.88645729999999,양평동1가 화장실,장애인용 화장실,화장실
45581,37.6872548,127.0406199,도봉산입구 공중화장실 화장실,장애인용 화장실,화장실
45584,37.6531856,127.04811389999999,창동역 공중화장실 화장실,장애인용 화장실,화장실
45590,37.6629896,127.04188049999999,방학사거리 공중화장실 화장실,장애인용 화장실,화장실
45595,37.661372899999996,127.0370857,방학천 공중화장실 화장실,장애인용 화장실,화장실
45785,37.5406554529,127.127444204,천호시장 화장실,장애인용 화장실,화장실
45603,37.650374400000004,127.040998,초안산근린공원-유아숲체험장 공중화장실 화장실,장애인용 화장실,화장실
45616,37.644029499999995,127.046241,초안산근린공원-세대공감공원 공중화장실 화장실,장애인용 화장실,화장실
45620,37.6447081,127.04915359999998,초안산근린공원-붕붕도서관 공중화장실 화장실,장애인용 화장실,화장실
45625,37.67507420000001,127.0278943,쌍문근린공원-세심천 공중화장실 화장실,장애인용 화장실,화장실
45630,37.648965000000004,127.04336459999999,월천근린공원 공중화장실 화장실,장애인용 화장실,화장실
45635,37.6487425,127.0455405,밤골어린이공원 공중화장실 화장실,장애인용 화장실,화장실
45641,37.6465143,127.04498319999999,뱃골어린이공원 공중화장실 화장실,장애인용 화장실,화장실
45647,37.644329299999995,127.05224390000001,대창어린이공원 공중화장실 화장실,장애인용 화장실,화장실
45651,37.5328679721,127.145497011,일자산자연공원(둔촌약수터입구) 화장실,장애인용 화장실,화장실
45655,37.5376248782,127.154309036,일자산자연공원(허브천무공원) 화장실,장애인용 화장실,화장실
45658,37.533019182,127.15135792299999,일자산자연공원(잔디광장옆) 화장실,장애인용 화장실,화장실
45661,37.5521457771,127.159427014,명일근린공원(중앙하이츠뒷산) 화장실,장애인용 화장실,화장실
45664,37.5490501185,127.16455804700001,명일근린공원(상일동산) 화장실,장애인용 화장실,화장실
45667,37.53036011,127.122828864,서경빌딩 화장실,장애인용 화장실,화장실
45608,37.6474261,127.0414291,초안산근린공원-창골축구장 공중화장실 화장실,장애인용 화장실,화장실
45539,37.5260437,126.9053439,전화국 뒤-2 화장실,장애인용 화장실,화장실
45792,37.550169167199996,127.128211819,동양텍스빌 화장실,장애인용 화장실,화장실
45798,37.550651154200004,127.129081759,암사종합시장(1) 화장실,장애인용 화장실,화장실
45940,37.303075,126.520905,갈산근린공원(B) 화장실,장애인용 화장실,화장실
45945,37.321681,126.530694,목마근린공원 화장실,장애인용 화장실,화장실
45951,37.320421,126.52379199999999,파리근린공원 화장실,장애인용 화장실,화장실
45954,37.313928999999995,126.52245500000001,오목근린공원 화장실,장애인용 화장실,화장실
45959,37.310412,126.52032700000001,양천근린공원 화장실,장애인용 화장실,화장실
45962,37.305085,126.512169,신트리근린공원 화장실,장애인용 화장실,화장실
45056,37.471045000000004,127.12675800000001,복정역공영주차장 화장실 화장실,장애인용 화장실,화장실
45965,37.311401000000004,126.50307099999999,독서근린공원 화장실,장애인용 화장실,화장실
45970,37.311278,126.500974,오솔길근린공원 화장실,장애인용 화장실,화장실
45975,37.311091,126.495654,한울근린공원 화장실,장애인용 화장실,화장실
45978,37.312106,126.49514099999999,양지근린공원 화장실,장애인용 화장실,화장실
45981,37.324705,126.524671,목동근린공원 화장실,장애인용 화장실,화장실
45986,37.304218,126.500297,연의근린공원 화장실,장애인용 화장실,화장실
45991,37.312126,126.50588300000001,장수공원 화장실,장애인용 화장실,화장실
45994,37.310743,126.511362,신정3호 화장실,장애인용 화장실,화장실
45997,37.310387,126.500009,신월근린공원 화장실,장애인용 화장실,화장실
46000,37.5568778,126.9725778,서울(1) 화장실,장애인용 화장실,화장실
46003,37.565682,126.97684879999998,시청(1) 화장실,장애인용 화장실,화장실
46006,37.5701747,126.9832262,종각 화장실,장애인용 화장실,화장실
46009,37.5703842,126.9920077,종로3가(1)(종각역측) 화장실,장애인용 화장실,화장실
46012,37.5708657,127.0019064,종로5가 화장실,장애인용 화장실,화장실
46015,37.571742900000004,127.01116940000001,동대문(1) 화장실,장애인용 화장실,화장실
46018,37.5760874,127.0245602,신설동(1) 화장실,장애인용 화장실,화장실
46021,37.5732808,127.0166486,동묘앞(1층) 화장실,장애인용 화장실,화장실
46025,37.578162799999994,127.0346872,제기동 화장실,장애인용 화장실,화장실
46029,37.5799838,127.0455472,청량리 화장실,장애인용 화장실,화장실
46033,37.5612786,126.9693213,시청(2)(지하1층) 화장실,장애인용 화장실,화장실
45937,37.303494,126.52130700000001,갈산근린공원(A) 화장실,장애인용 화장실,화장실
45934,37.515331,126.850569,계남근린공원(D) 화장실,장애인용 화장실,화장실
45931,37.303419,126.512227,계남근린공원(C) 화장실,장애인용 화장실,화장실
45928,37.303789,126.51256299999999,계남근린공원(B) 화장실,장애인용 화장실,화장실
45804,37.5509147686,127.12860238799999,암사종합시장(2) 화장실,장애인용 화장실,화장실
45807,37.5522057324,127.127925596,암사영향센타 화장실,장애인용 화장실,화장실
45810,37.551546419,127.127725295,태성프라자 화장실,장애인용 화장실,화장실
45815,37.549964856100004,127.127179404,삼정빌딩 화장실,장애인용 화장실,화장실
45818,37.5385798825,127.12374300200001,신라빌딩 화장실,장애인용 화장실,화장실
45823,37.5529551137,127.143802296,롯데리아명일드라이브점 화장실,장애인용 화장실,화장실
45826,37.5341617144,127.13652064700001,웽빙메디칼빌딩 화장실,장애인용 화장실,화장실
45830,37.5412636868,127.140874099,남해빌딩 화장실,장애인용 화장실,화장실
45833,37.5538559378,127.143944358,시온캐슬 화장실,장애인용 화장실,화장실
45837,37.534595945300005,127.13811447399999,휴다임타워 화장실,장애인용 화장실,화장실
45840,37.5366055081,127.133117181,강동헤르셔 화장실,장애인용 화장실,화장실
45846,37.5300155366,127.131557784,소망빌딩 화장실,장애인용 화장실,화장실
45851,37.5653804786,127.174119886,강일임폐리얼 화장실,장애인용 화장실,화장실
45795,37.5508648295,127.12812700399999,501타워 화장실,장애인용 화장실,화장실
45859,37.5656223914,127.173817104,강일타워 화장실,장애인용 화장실,화장실
45872,37.509943,126.873129,오금교 입구 화장실,장애인용 화장실,화장실
45876,37.513011,126.875832,오금인라인장 화장실,장애인용 화장실,화장실
45881,37.515985,126.877334,신정교 별마루축구장 화장실,장애인용 화장실,화장실
45886,37.518322,126.877559,신정교 해마루축구장 화장실,장애인용 화장실,화장실
45891,37.525118,126.87809299999999,오목교 출구 화장실,장애인용 화장실,화장실
45896,37.528531,126.880599,영학정 화장실,장애인용 화장실,화장실
45902,37.533291,126.887739,목동인라인장 화장실,장애인용 화장실,화장실
45908,37.538869,126.886048,양평교 화장실,장애인용 화장실,화장실
45912,37.54293300000001,126.884032,양화교 화장실,장애인용 화장실,화장실
45915,37.323993,126.52400700000001,용왕산근린공원(A) 화장실,장애인용 화장실,화장실
45919,37.323026,126.52263400000001,용왕산근린공원(B) 화장실,장애인용 화장실,화장실
45922,37.323904,126.524106,용왕산근린공원(C) 화장실,장애인용 화장실,화장실
45925,37.304896,126.504382,계남근린공원(A) 화장실,장애인용 화장실,화장실
45864,37.545279,126.881914,목동공중화장실 화장실,장애인용 화장실,화장실
45053,37.62009000000001,127.08668999999999,화랑대역공영주차장 화장실 화장실,장애인용 화장실,화장실
44463,37.611359,126.92848899999998,롯데리아불광점 화장실,장애인용 화장실,화장실
45047,37.689719000000004,127.044822,도봉산역공영주차장 화장실 화장실,장애인용 화장실,화장실
42124,37.516682,127.120994,잠실종합사회복지관 화장실,장애인용 화장실,화장실
39350,37.501289,126.829383,궁동생태공원 화장실,장애인용 화장실,화장실
39361,37.490433,126.89161599999998,구로리어린이공원 화장실,장애인용 화장실,화장실
42113,37.51693,127.11820900000001,풍납종합사회복지관 화장실,장애인용 화장실,화장실
39371,37.497937,126.88048899999998,화원어린이공원 화장실,장애인용 화장실,화장실
42100,37.516559,127.12921000000001,삼전종합사회복지관 화장실,장애인용 화장실,화장실
42086,37.518034,127.116721,송파종합사회복지관 화장실,장애인용 화장실,화장실
39381,37.500312,126.88443799999999,애경어린이공원 화장실,장애인용 화장실,화장실
39388,37.485186999999996,126.88731100000001,성산빌라 앞 화장실,장애인용 화장실,화장실
39402,37.485938,126.88857800000001,동산빌라앞 화장실,장애인용 화장실,화장실
42065,37.51894,127.115517,가락종합사회복지관 화장실,장애인용 화장실,화장실
42049,37.519185,127.116092,마천종합사회복지관 화장실,장애인용 화장실,화장실
39415,37.507601,126.854501,계남근린공원입구 화장실,장애인용 화장실,화장실
42038,37.499996,127.134841,송파 어린이문화회관 화장실,장애인용 화장실,화장실
39426,37.50300900000001,126.85281100000002,고척근린공원 소공원 화장실,장애인용 화장실,화장실
42022,37.5031984473,126.96769570299999,비계(현충) 화장실,장애인용 화장실,화장실
39442,37.502194,126.839656,잦절약수터 입구 화장실,장애인용 화장실,화장실
42140,37.514996000000004,127.122224,솔바람복지센터 화장실,장애인용 화장실,화장실
42004,37.489731,127.111309,송파여성문화회관 화장실 화장실,장애인용 화장실,화장실
39340,37.505376,126.853067,고척근린공원 화장실,장애인용 화장실,화장실
42150,37.521094,127.12101100000001,방이복지관 화장실,장애인용 화장실,화장실
39235,37.559433,126.976225,남대문시장 화장실,장애인용 화장실,화장실
42236,37.51427,127.126347,거송경로당 화장실 화장실,장애인용 화장실,화장실
42228,37.522386,127.116483,송파구의회 화장실,장애인용 화장실,화장실
39246,37.564371,127.00630600000001,광희동 화장실,장애인용 화장실,화장실
39258,37.563819,127.013347,신당 1호 화장실,장애인용 화장실,화장실
42215,37.515527,127.122188,송파구보건지소 화장실,장애인용 화장실,화장실
39265,37.561325,127.013778,신당 2호 화장실,장애인용 화장실,화장실
42203,37.51827,127.122876,보건소 화장실,장애인용 화장실,화장실
39276,37.561316999999995,127.013783,청구역 화장실,장애인용 화장실,화장실
42191,37.520208000000004,127.125752,송파구청 화장실,장애인용 화장실,화장실
39287,37.56754,127.01813899999999,황학동 화장실,장애인용 화장실,화장실
42180,37.524418,127.12322900000001,서울곰두리체육센터(오금동 51번지) 화장실,장애인용 화장실,화장실
39303,37.487057,126.886241,구로4동 경로당 화장실,장애인용 화장실,화장실
42170,37.514047999999995,127.127531,인성장애인복지관 화장실,장애인용 화장실,화장실
42159,37.51477,127.12509399999999,서울시각장애인복지관 화장실,장애인용 화장실,화장실
39313,37.501131,126.89034099999999,거리공원 등기소앞 화장실,장애인용 화장실,화장실
39321,37.496342999999996,126.824444,삭새어린이공원 화장실,장애인용 화장실,화장실
39330,37.490107,126.853004,개웅어린이공원 화장실,장애인용 화장실,화장실
42252,37.517233000000004,127.120154,풍납1동 주민센터 화장실,장애인용 화장실,화장실
39463,37.485145,126.847953,개웅산공원 화장실,장애인용 화장실,화장실
39484,37.491017,126.863285,목감교 화장실,장애인용 화장실,화장실
41871,37.493519,127.13093899999998,방이동고분군화장실 화장실,장애인용 화장실,화장실
39626,37.492482,126.840966,미래빌라앞 화장실,장애인용 화장실,화장실
41858,37.498974,127.139151,물빛광장 앞 화장실 화장실,장애인용 화장실,화장실
41849,37.503089,127.14238799999998,"탄천,장지천 합류지점 화장실 화장실",장애인용 화장실,화장실
39636,37.513326,126.885695,도림교옆 화장실,장애인용 화장실,화장실
39646,37.493255,126.819401,온수체육공원 화장실,장애인용 화장실,화장실
41837,37.490303000000004,127.132223,성내천 물놀이장 화장실 화장실,장애인용 화장실,화장실
41830,37.496836,127.141655,마천시장 화장실,장애인용 화장실,화장실
41827,37.501658,127.14575400000001,GS칼텍스 레이크시티주유소 화장실,장애인용 화장실,화장실
39671,37.489768,126.88708799999999,남구로시장 화장실,장애인용 화장실,화장실
41812,37.485184000000004,127.128863,SK엔크린 신화에너지 화장실,장애인용 화장실,화장실
39691,37.489290999999994,126.87251100000002,뱀쇠다리 옆 화장실,장애인용 화장실,화장실
41799,37.489917999999996,127.14360400000001,송파주유소 화장실,장애인용 화장실,화장실
41788,37.50519,127.131653,아시아주유소 화장실,장애인용 화장실,화장실
41785,37.508202000000004,127.132566,㈜남경석유 화장실,장애인용 화장실,화장실
39704,37.505251,126.84421100000002,참새소공원 화장실,장애인용 화장실,화장실
41772,37.50047100000001,127.13168600000002,퍼스트주유소(셀프) 화장실,장애인용 화장실,화장실
39616,37.502117999999996,126.83481299999998,오수배드민턴장 화장실,장애인용 화장실,화장실
41986,37.492335,127.156625,송파어린이영어작은도서관 화장실,장애인용 화장실,화장실
41883,37.49346,127.13006499999999,석촌동 고분군화장실 화장실,장애인용 화장실,화장실
39603,37.476158,126.84231399999999,천왕근린공원 화장실,장애인용 화장실,화장실
41978,37.532163,127.113295,소나무언덕잠실본동작은도서관 화장실,장애인용 화장실,화장실
39500,37.480733,126.846005,광명교 화장실,장애인용 화장실,화장실
41968,37.506347,127.10998700000002,거마도서관 정보센터 화장실,장애인용 화장실,화장실
39515,37.485671,126.886622,남구로역 공중화장실 화장실,장애인용 화장실,화장실
39521,37.495033,126.87102900000001,구일역제방앞 화장실,장애인용 화장실,화장실
41956,37.538538,127.121894,소나무언덕2호작은도서관 화장실,장애인용 화장실,화장실
39533,37.501465,126.872376,고척교입구 화장실,장애인용 화장실,화장실
41945,37.500888,127.15880200000001,소나무언덕1호작은도서관 화장실,장애인용 화장실,화장실
39546,37.499117,126.872294,인라인스케이트장제방 화장실,장애인용 화장실,화장실
39554,37.511845,126.87817199999999,c구장(축구장)제방위 화장실,장애인용 화장실,화장실
41933,37.485147,127.13463999999999,송파어린이도서관 화장실,장애인용 화장실,화장실
41924,37.478652000000004,127.12066000000002,배드민턴체육관 화장실 화장실,장애인용 화장실,화장실
39565,37.500023999999996,126.86924499999999,동양미래대학옆제방 화장실,장애인용 화장실,화장실
41912,37.506054,127.08456799999999,체육문화회관화장실 화장실,장애인용 화장실,화장실
39580,37.509325,126.85599099999999,계남근린공원 화장실,장애인용 화장실,화장실
39592,37.489378,126.87546499999999,신구로유수지 화장실,장애인용 화장실,화장실
41899,37.498197999999995,127.125335,송파구여성축구장 화장실,장애인용 화장실,화장실
41890,37.491797999999996,127.123935,송파다목적구장화장실 화장실,장애인용 화장실,화장실
42255,37.514733,127.127567,풍납2동 주민센터 화장실,장애인용 화장실,화장실
42262,37.516964,127.12333500000001,거여1동주민센터 화장실,장애인용 화장실,화장실
42277,37.520986,127.126732,거여2동주민센터 화장실,장애인용 화장실,화장실
43043,37.4711625,126.88011470000001,건국빌딩 화장실,장애인용 화장실,화장실
43025,37.4761203,126.87561559999999,효연빌딩 화장실,장애인용 화장실,화장실
43007,37.4733373,126.87804550000001,삼일빌딩 화장실,장애인용 화장실,화장실
42994,37.4759294,126.8805365,미도빌딩 화장실,장애인용 화장실,화장실
42976,37.4793528,126.88521670000002,농협관악지점 화장실,장애인용 화장실,화장실
42969,37.4776571,126.8817333,삼주물산 화장실,장애인용 화장실,화장실
42960,37.4737591,126.8829029,남문시장 화장실,장애인용 화장실,화장실
42947,37.4715436,126.88126559999999,영진빌딩 화장실,장애인용 화장실,화장실
42929,37.533822,127.12117099999999,올림픽공원-P1주차장(옥외화장실) 화장실,장애인용 화장실,화장실
42916,37.529058,127.11038300000001,올림픽공원-에어돔(옥외화장실) 화장실,장애인용 화장실,화장실
42903,37.490909,127.158144,올림픽공원-북2문 화장실,장애인용 화장실,화장실
42894,37.502193,127.116799,올림픽공원-피크닉장(옥외화장실) 화장실,장애인용 화장실,화장실
42875,37.49355,127.146817,올림픽공원-수영장(옥외화장실) 화장실,장애인용 화장실,화장실
42854,37.503099,127.07886200000002,올림픽공원-경륜장(옥외화장실) 화장실,장애인용 화장실,화장실
42841,37.507264,127.09416100000001,올림픽공원-중앙공급실 화장실,장애인용 화장실,화장실
42825,37.502331,127.12300400000001,선수촌올림픽스포츠센타 화장실,장애인용 화장실,화장실
42815,37.527248,127.11768799999999,올림픽회관 화장실,장애인용 화장실,화장실
43056,37.458539200000004,126.88063570000001,새한벤처월드 화장실,장애인용 화장실,화장실
42805,37.501298,127.11888400000001,올림픽공원-컨벤션센터 화장실,장애인용 화장실,화장실
43069,37.4567829,126.88664569999999,금천구청 화장실,장애인용 화장실,화장실
43095,37.4701912,126.8882753,독산1동 주민센터 화장실,장애인용 화장실,화장실
43293,37.467464299999996,126.89929540000001,금천구립도서관 화장실,장애인용 화장실,화장실
43289,37.4702421,126.89830990000002,금천구민문화체육센터 화장실,장애인용 화장실,화장실
43275,37.4778527,126.8939706,구룡공영주차장 화장실,장애인용 화장실,화장실
43265,37.479282,126.8975982,독산3동 공영주차장 화장실,장애인용 화장실,화장실
43263,37.4638407,126.8912794,독산2동 공영주차장 화장실,장애인용 화장실,화장실
43252,37.4649091,126.8860344,독산1동 공영주차장 화장실,장애인용 화장실,화장실
43244,37.4734666,126.8833726,가산정보 도서관 화장실,장애인용 화장실,화장실
43238,37.4766434,126.8868057,가산동 공영주차장 화장실,장애인용 화장실,화장실
43222,37.4523731,126.89954080000001,시흥5동 주민센터 화장실,장애인용 화장실,화장실
43207,37.45896629999999,126.89741609999999,시흥4동 주민센터 화장실,장애인용 화장실,화장실
43191,37.4402328,126.89704809999999,시흥3동 주민센터 화장실,장애인용 화장실,화장실
43185,37.4496493,126.90570829999999,시흥2동 주민센터 화장실,장애인용 화장실,화장실
43170,37.4535401,126.8944932,시흥1동 주민센터 화장실,장애인용 화장실,화장실
43153,37.4674311,126.8933803,독산4동 주민센터 화장실,장애인용 화장실,화장실
43137,37.475137,126.8944592,독산3동 주민센터 화장실,장애인용 화장실,화장실
43126,37.4660933,126.8909841,독산2동 주민센터 화장실,장애인용 화장실,화장실
43114,37.4579178,126.8790119,독산1동 분소 화장실,장애인용 화장실,화장실
43081,37.47686820000001,126.8830013,가산동 주민센터 화장실,장애인용 화장실,화장실
42796,37.478765,127.11699399999999,올림픽공원-올림픽미술관 화장실,장애인용 화장실,화장실
42781,37.502534999999995,127.137391,올림픽공원-올림픽홀 화장실,장애인용 화장실,화장실
42766,37.50078,127.131782,올림픽공원-수영경기장 화장실,장애인용 화장실,화장실
42487,37.507311,127.093828,가락2동주민센터 화장실,장애인용 화장실,화장실
42479,37.516474,127.072985,가락1동주민센터 화장실,장애인용 화장실,화장실
42465,37.493479,127.11148700000001,가락본동주민센터 화장실,장애인용 화장실,화장실
42449,37.502635,127.12784099999999,삼전동주민센터 화장실,장애인용 화장실,화장실
42435,37.495931,127.12170800000001,석촌동주민센터 화장실,장애인용 화장실,화장실
42412,37.513884000000004,127.106397,송파2동주민센터 화장실,장애인용 화장실,화장실
42401,37.515537,127.100894,송파1동주민센터 화장실,장애인용 화장실,화장실
42388,37.50031,127.1082,송파나루(카페고고스) 화장실 화장실,장애인용 화장실,화장실
42380,37.50823,127.12989499999999,인성정보빌딩 화장실,장애인용 화장실,화장실
42378,37.511301,127.07883999999999,위너스빌딩 화장실,장애인용 화장실,화장실
42359,37.503106,127.099043,제우빌딩 화장실,장애인용 화장실,화장실
42346,37.495584,127.12378999999999,오금동주민센터 화장실,장애인용 화장실,화장실
42333,37.514371999999995,127.088936,오륜동주민센터 화장실,장애인용 화장실,화장실
42322,37.48099600000001,127.13663600000001,방이2동주민센터 화장실,장애인용 화장실,화장실
42311,37.47085,127.132053,방이1동주민센터 화장실,장애인용 화장실,화장실
42301,37.499806,127.142478,마천2동주민센터 화장실,장애인용 화장실,화장실
42292,37.515465999999996,127.128468,마천1동주민센터 화장실,장애인용 화장실,화장실
42502,37.519736,127.13654199999999,문정1동주민센터 화장실,장애인용 화장실,화장실
42513,37.494166,127.151797,문정2동주민센터 화장실,장애인용 화장실,화장실
42525,37.502708,127.09276100000001,장지동주민센터 화장실,장애인용 화장실,화장실
42539,37.519203999999995,127.127499,잠실2동주민센터 화장실,장애인용 화장실,화장실
42750,37.501925,127.10226599999999,올림픽공원-경륜장(벨로드룸) 화장실,장애인용 화장실,화장실
42741,37.490682,127.142822,올림픽공원-제3체육관(역도) 화장실,장애인용 화장실,화장실
42727,37.493581,127.13823700000002,올림픽공원-제2체육관(펜싱) 화장실,장애인용 화장실,화장실
42712,37.512107,127.082406,올림픽공원-제1체육관(체조) 화장실,장애인용 화장실,화장실
42700,37.4705467,126.88102920000001,새울빌딩 화장실,장애인용 화장실,화장실
42694,37.506104,127.083624,삼전지구대 화장실,장애인용 화장실,화장실
42680,37.501877,127.13795900000001,문정지구대 화장실,장애인용 화장실,화장실
42667,37.504594,127.077357,가락지구대 화장실,장애인용 화장실,화장실
41769,37.503781,127.13035900000001,송파제일주유소(셀프) 화장실,장애인용 화장실,화장실
42656,37.502534999999995,127.11634,잠실지구대 화장실,장애인용 화장실,화장실
42644,37.5035,127.09726699999999,마천지구대 화장실,장애인용 화장실,화장실
42631,37.498298999999996,127.150577,송파세무서 화장실,장애인용 화장실,화장실
42618,37.500485999999995,127.14109199999999,강동세무서 화장실,장애인용 화장실,화장실
42610,37.512153999999995,127.107704,송파경찰서 화장실,장애인용 화장실,화장실
42595,37.508691,127.09774099999998,잠실7동주민센터 화장실,장애인용 화장실,화장실
42579,37.506786,127.098228,잠실6동주민센터 화장실,장애인용 화장실,화장실
42563,37.517016999999996,127.12603200000001,잠실4동주민센터 화장실,장애인용 화장실,화장실
42553,37.516789,127.12506100000002,잠실3동주민센터 화장실,장애인용 화장실,화장실
42646,37.499488,127.101729,방이지구대 화장실,장애인용 화장실,화장실
39722,37.506931,126.856076,덕의근린공원 화장실,장애인용 화장실,화장실
41756,37.48956,127.110602,선우상사 삼전주유소 화장실,장애인용 화장실,화장실
41753,37.497627,127.124371,삼정주유소 화장실,장애인용 화장실,화장실
41082,37.499311999999996,127.097053,민성빌딩 화장실,장애인용 화장실,화장실
41067,37.510861,127.11022700000001,세븐스타빌딩 화장실,장애인용 화장실,화장실
40323,37.53587,127.113731,송파나루(놀이마당) 화장실 화장실,장애인용 화장실,화장실
41052,37.506227,127.131651,신우빌딩 화장실,장애인용 화장실,화장실
40331,37.516192,127.09345900000001,송파나루(갤러리수) 화장실 화장실,장애인용 화장실,화장실
41034,37.522388,127.10296699999999,청호빌딩 화장실,장애인용 화장실,화장실
40340,37.508531,127.07691000000001,잠실공원 화장실 화장실,장애인용 화장실,화장실
41022,37.514285,127.11389199999999,풍납지구대 화장실,장애인용 화장실,화장실
41018,37.505896,127.109766,가락빌딩 화장실,장애인용 화장실,화장실
40352,37.508540999999994,127.076715,방이공원 화장실 화장실,장애인용 화장실,화장실
40998,37.493971,127.155076,현대파크빌상가빌딩 화장실,장애인용 화장실,화장실
40989,37.50047100000001,127.13546699999999,삼성생명빌딩 화장실,장애인용 화장실,화장실
40371,37.520247,127.115553,송이공원 화장실 화장실,장애인용 화장실,화장실
40976,37.514602000000004,127.10654099999999,성진빌딩 화장실,장애인용 화장실,화장실
40387,37.494029,127.118077,웃말공원 화장실 화장실,장애인용 화장실,화장실
40962,37.50275,127.12838899999998,효창빌딩 화장실,장애인용 화장실,화장실
40395,37.494547,127.120977,가락공원1(관리동) 화장실 화장실,장애인용 화장실,화장실
41098,37.504302,127.089021,석촌레이크빌 화장실,장애인용 화장실,화장실
40944,37.491772999999995,127.15561000000001,삼성디지탈프라자 화장실,장애인용 화장실,화장실
40308,37.512572,127.10819,KT가락지점 화장실,장애인용 화장실,화장실
40299,37.52467100000001,127.12196399999999,올림픽공원-테니스장 화장실,장애인용 화장실,화장실
41225,37.495509999999996,127.12175,한솔병원 화장실,장애인용 화장실,화장실
40225,37.504757,127.08773799999999,서울초이스병원(임정애 메이저) 화장실,장애인용 화장실,화장실
40229,37.516616,127.101258,아산병원 화장실,장애인용 화장실,화장실
41214,37.496936,127.148574,빠른병원 화장실,장애인용 화장실,화장실
40240,37.497659999999996,127.125723,한국육영학교(특수) 화장실,장애인용 화장실,화장실
41200,37.495332,127.14081200000001,서울병원 화장실,장애인용 화장실,화장실
41189,37.528724,127.116851,올림픽병원 화장실,장애인용 화장실,화장실
41185,37.494675,127.14849,뉴스타트병원 화장실,장애인용 화장실,화장실
40243,37.504129999999996,127.107677,한국체육대학교 화장실,장애인용 화장실,화장실
40252,37.516312,127.10041299999999,아시아선수촌A동상가 화장실,장애인용 화장실,화장실
41168,37.502295000000004,127.093303,문산부인과 화장실,장애인용 화장실,화장실
41157,37.503901,127.13815600000001,향군타워B동 화장실,장애인용 화장실,화장실
40266,37.489398,127.122831,잠실3동성당 화장실,장애인용 화장실,화장실
40275,37.511469,127.08168899999998,풍납백제문화공원 화장실,장애인용 화장실,화장실
41141,37.506586,127.08099399999999,파크인수빌딩 화장실,장애인용 화장실,화장실
41124,37.475386,127.12756999999999,아이티벤처타워 화장실,장애인용 화장실,화장실
40290,37.481813,127.13246299999999,송파관광정보센터 화장실,장애인용 화장실,화장실
41110,37.502383,127.094292,우진빌딩 화장실,장애인용 화장실,화장실
40412,37.522698999999996,127.126848,가락공원2 (족구장) 화장실 화장실,장애인용 화장실,화장실
40931,37.527741999999996,127.113877,세기빌딩 화장실,장애인용 화장실,화장실
40421,37.497353000000004,127.14649299999999,백토공원 화장실 화장실,장애인용 화장실,화장실
40529,37.502821999999995,127.09856,목련공원 화장실 화장실,장애인용 화장실,화장실
40719,37.506316,127.106633,제3거여 재래식 화장실,장애인용 화장실,화장실
40707,37.493210999999995,127.13636299999999,제2거여 재래식 화장실,장애인용 화장실,화장실
40541,37.50359,127.092203,누에머리공원 화장실 화장실,장애인용 화장실,화장실
40692,37.477614,127.124945,산성 화장실 화장실,장애인용 화장실,화장실
40684,37.518096,127.10063899999999,마천 공중화장실 화장실,장애인용 화장실,화장실
40553,37.51232,127.12552,두댐이공원 화장실 화장실,장애인용 화장실,화장실
40672,37.508532,127.07690500000001,장미 화장실 화장실,장애인용 화장실,화장실
40662,37.501847999999995,127.12758600000001,중소기업정보관 화장실 화장실,장애인용 화장실,화장실
40565,37.512589,127.11395700000001,거여공원 화장실 화장실,장애인용 화장실,화장실
40652,37.526396999999996,127.114103,동남권유통단지 화장실 화장실,장애인용 화장실,화장실
40577,37.510673,127.1208,마천공원 화장실 화장실,장애인용 화장실,화장실
40641,37.52672800000001,127.113524,장지근린공원 화장실 화장실,장애인용 화장실,화장실
40631,37.497048,127.14818600000001,천마산공원(축구장) 화장실 화장실,장애인용 화장실,화장실
40589,37.511115000000004,127.111104,연화공원 화장실 화장실,장애인용 화장실,화장실
40622,37.510249,127.12571299999999,천마산공원(안전공원) 화장실 화장실,장애인용 화장실,화장실
40612,37.491231,127.11534099999999,풍납공원 화장실 화장실,장애인용 화장실,화장실
40730,37.504578,127.138421,제4거여 재래식 화장실,장애인용 화장실,화장실
40734,37.509823,127.131592,제5거여 재래식 화장실,장애인용 화장실,화장실
40743,37.471111,127.126154,제6거여 재래식 화장실,장애인용 화장실,화장실
40752,37.50651,127.12056799999999,신도빌딩 화장실,장애인용 화장실,화장실
40905,37.53595,127.116069,동성빌딩 화장실,장애인용 화장실,화장실
40431,37.4927553611,126.973213918,상록(현충) 화장실,장애인용 화장실,화장실
40894,37.514685,127.114194,대우유토피아 화장실,장애인용 화장실,화장실
40442,37.496575,127.147079,훼미리공원 화장실 화장실,장애인용 화장실,화장실
40876,37.492385,127.127344,현대드림밸리빌딩 화장실,장애인용 화장실,화장실
40456,37.49565,127.14773400000001,오금공원1(관리동) 화장실 화장실,장애인용 화장실,화장실
40467,37.496021999999996,127.147489,오금공원2(테니스장) 화장실 화장실,장애인용 화장실,화장실
40856,37.4926707943,126.966637299,학수(현충) 화장실,장애인용 화장실,화장실
41237,37.50277,127.09253799999999,힘찬병원 화장실,장애인용 화장실,화장실
40837,37.495843,127.124748,향군회관A동 화장실,장애인용 화장실,화장실
40826,37.492985,127.149482,현윤빌딩 화장실,장애인용 화장실,화장실
40489,37.494576,127.15053300000001,건너말 공원 화장실 화장실,장애인용 화장실,화장실
40504,37.478614,127.11908999999999,개롱공원1(관리동) 화장실 화장실,장애인용 화장실,화장실
40801,37.493745000000004,127.144305,로데오 상점가-취약지역 화장실,장애인용 화장실,화장실
40793,37.500054,127.14313100000001,㈜송파상운-취약지역 화장실,장애인용 화장실,화장실
40780,37.500049,127.147784,세신타운 화장실,장애인용 화장실,화장실
40516,37.502725,127.108952,개롱공원2(놀이터) 화장실 화장실,장애인용 화장실,화장실
40762,37.485902,127.13243100000001,가윤빌딩 화장실,장애인용 화장실,화장실
40478,37.49525300000001,127.149206,오금공원3(스케이트장) 화장실 화장실,장애인용 화장실,화장실
43308,37.452602899999995,126.89554550000001,금빛공원 휘트니스센터 화장실,장애인용 화장실,화장실
40212,37.506991,127.089909,가락119안전센터 화장실,장애인용 화장실,화장실
41253,37.503592,127.103652,잠실중앙상가 화장실,장애인용 화장실,화장실
39867,37.54480786,127.05240500000001,매봉산지하수 옆 화장실,장애인용 화장실,화장실
41613,37.499076,127.11944799999999,삼화주유소 화장실,장애인용 화장실,화장실
39878,37.5485049,127.03086680000001,응봉자전거대여소 화장실,장애인용 화장실,화장실
41599,37.502767999999996,127.097991,올림픽주유소(셀프) 화장실,장애인용 화장실,화장실
39892,37.54845678,127.03192949999999,응봉산 팔각정 화장실,장애인용 화장실,화장실
41588,37.503917,127.124701,한진송파주유소 화장실,장애인용 화장실,화장실
39898,37.549916100000004,127.028741,상원 앞 화장실,장애인용 화장실,화장실
41578,37.507467,127.10966699999999,유진주유소 화장실,장애인용 화장실,화장실
41568,37.50608,127.10590400000001,잠실주유소(셀프) 화장실,장애인용 화장실,화장실
39913,37.56982606,127.04410790000001,송정제방 화장실,장애인용 화장실,화장실
39916,37.56720159,127.04106740000002,송정농구장 화장실,장애인용 화장실,화장실
41546,37.50763,127.109816,인광주유소 화장실,장애인용 화장실,화장실
41539,37.512494000000004,127.093382,GS석촌주유소 화장실,장애인용 화장실,화장실
39931,37.5531319,127.02834909999999,새말빗물펌프장 화장실,장애인용 화장실,화장실
41536,37.515823,127.132201,송파알찬주유소 화장실,장애인용 화장실,화장실
39934,37.54610038,127.0105808,궁터장 화장실,장애인용 화장실,화장실
41523,37.497569,127.151246,SK정유(남성주유소) 화장실,장애인용 화장실,화장실
41624,37.498954,127.117173,완불주유소 화장실,장애인용 화장실,화장실
41517,37.510395,127.07229,SK방이주유소 화장실,장애인용 화장실,화장실
39853,37.55127046,127.0372186,응봉교 아래 화장실,장애인용 화장실,화장실
39842,37.55759695,127.0372514,응봉체육공원 화장실,장애인용 화장실,화장실
41739,37.517399,127.10071699999999,상아주유소 화장실,장애인용 화장실,화장실
39737,37.571378,127.040233,마장축산물평면주차장 화장실,장애인용 화장실,화장실
39754,37.56175999,127.0352626,행당어린이공원 화장실,장애인용 화장실,화장실
41724,37.517821999999995,127.10181899999999,대성주유소 화장실,장애인용 화장실,화장실
39763,37.56610416,127.04575659999999,한양대 앞 화장실,장애인용 화장실,화장실
41709,37.520051,127.10381000000001,송파주유소(셀프) 화장실,장애인용 화장실,화장실
39773,37.553588299999994,127.0419162,왕십리문화공원 화장실,장애인용 화장실,화장실
41698,37.511101000000004,127.09390400000001,정직한주유소(셀프) 화장실,장애인용 화장실,화장실
41687,37.491735,127.11773799999999,서원주유소 화장실,장애인용 화장실,화장실
39788,37.55644520000001,127.0195178,독서당공원 화장실,장애인용 화장실,화장실
39791,37.55397271,127.04632620000001,자동차매매 화장실,장애인용 화장실,화장실
39798,37.56607434,127.047049,성수근린공원 화장실,장애인용 화장실,화장실
39806,37.56161138,127.0269475,성삼공원 화장실,장애인용 화장실,화장실
41673,37.516252,127.103021,우리주유소 화장실,장애인용 화장실,화장실
39822,37.56789151,127.039399,중랑물재생센터 화장실,장애인용 화장실,화장실
41657,37.512386,127.099356,진양주유소 화장실,장애인용 화장실,화장실
39832,37.54484853,127.0206114,무학봉 화장실,장애인용 화장실,화장실
41641,37.511283,127.097926,남성대주유소 화장실,장애인용 화장실,화장실
39946,37.54953971,127.0349686,살곶이 진입 화장실,장애인용 화장실,화장실
41505,37.500221999999994,127.160804,백제고분로주유소 화장실,장애인용 화장실,화장실
39960,37.497156,127.14693700000001,숯내공원 화장실 화장실,장애인용 화장실,화장실
41350,37.513279,127.094223,롯데마트 송파점 화장실,장애인용 화장실,화장실
41344,37.520162,127.112274,아시아선수촌B동상가 화장실,장애인용 화장실,화장실
40111,37.512144,127.08300700000001,한국조세연구원빌딩 화장실,장애인용 화장실,화장실
40126,37.506762,127.105286,국민연금본부회관 화장실,장애인용 화장실,화장실
40134,37.501287,127.12703799999998,경찰병원 화장실,장애인용 화장실,화장실
41327,37.510961,127.12395500000001,갤러리아팰리스 화장실,장애인용 화장실,화장실
40147,37.50137,127.108678,강동송파교육지원청 화장실,장애인용 화장실,화장실
41310,37.51459000000001,127.114434,잠실지하 상가 화장실,장애인용 화장실,화장실
40151,37.495107,127.122426,송파구  공영차고지 화장실,장애인용 화장실,화장실
40158,37.5073,127.11663600000001,시설관리공단 화장실,장애인용 화장실,화장실
40166,37.49061,127.157521,마천119안전센터 화장실,장애인용 화장실,화장실
41294,37.50293900000001,127.12808400000002,장미상가 B 화장실,장애인용 화장실,화장실
40174,37.508236,127.10388700000001,거여119안전센터 화장실,장애인용 화장실,화장실
41276,37.506276,127.109292,장미상가 A 화장실,장애인용 화장실,화장실
40189,37.505798,127.10616,방이119안전센터 화장실,장애인용 화장실,화장실
41270,37.50233400000001,127.116708,올림픽프라자상가 화장실,장애인용 화장실,화장실
40195,37.492979,127.15016200000001,잠실119안전센터 화장실,장애인용 화장실,화장실
40104,37.511477,127.08148,대한소방공제회빌딩 화장실,장애인용 화장실,화장실
40088,37.512456,127.10506399999998,송파나루(더다이닝) 화장실 화장실,장애인용 화장실,화장실
41379,37.506146,127.084383,롯데백화점 화장실,장애인용 화장실,화장실
41394,37.487,127.13233500000001,롯데마트 잠실점 화장실,장애인용 화장실,화장실
39963,37.507927,127.118076,올림픽공원-몽촌삼거리(옥외화장실) 화장실,장애인용 화장실,화장실
39972,37.514634,127.10741100000001,올림픽공원-공급실 앞(옥외화장실) 화장실,장애인용 화장실,화장실
41480,37.510334,127.101129,트레져오일몽촌주유소 화장실,장애인용 화장실,화장실
39977,37.493312,127.12503600000001,올림픽공원-공급실 뒤(옥외화장실) 화장실,장애인용 화장실,화장실
41472,37.538075,127.12206499999999,GS훼미리주유소 화장실,장애인용 화장실,화장실
39992,37.502416,127.12611499999998,올림픽공원-구립SOMA미술관 화장실,장애인용 화장실,화장실
39995,37.515394,127.10744199999999,올림픽공원-만남의광장(A2동) 화장실,장애인용 화장실,화장실
40005,37.493833,127.12048200000001,올림픽공원-프라자A동 화장실,장애인용 화장실,화장실
40207,37.514021,127.10756699999999,운동장119안전센터 화장실,장애인용 화장실,화장실
41458,37.496986,127.14325500000001,제트라인디엠주유소 화장실,장애인용 화장실,화장실
41440,37.495961,127.149872,서울주유소 화장실,장애인용 화장실,화장실
40032,37.51077,127.116514,송파도서관(오금동 51) 화장실,장애인용 화장실,화장실
40040,37.507065000000004,127.07988600000002,청소년 수련관 화장실,장애인용 화장실,화장실
41427,37.498713,127.12659099999999,가든파이브(라이프) 화장실,장애인용 화장실,화장실
40058,37.509334,127.085974,서울영어마을풍납캠프 화장실,장애인용 화장실,화장실
41412,37.490097,127.124133,가든파이브(툴) 화장실,장애인용 화장실,화장실
41403,37.489875,127.110781,롯데캐슬프라자 화장실,장애인용 화장실,화장실
40072,37.538261999999996,127.12283799999999,송파우체국 화장실,장애인용 화장실,화장실
40019,37.514516,127.108802,올림픽공원-프라자C동 화장실,장애인용 화장실,화장실
45050,37.513118,127.103524,잠실역공영주차장 화장실 화장실,장애인용 화장실,화장실
43322,37.4483861,126.90678999999999,서울시립금천청소년수련관 화장실,장애인용 화장실,화장실
43347,37.4457296,126.89388170000001,금천구 시설관리공단 화장실,장애인용 화장실,화장실
44727,37.615398,126.91990200000001,대조어린이공원 화장실,장애인용 화장실,화장실
44722,37.614676,126.91581200000002,길마어린이공원 화장실,장애인용 화장실,화장실
44719,37.625108000000004,126.91853799999998,박석어린이공원 화장실,장애인용 화장실,화장실
44716,37.621469,126.91573600000001,서갈현어린이공원 화장실,장애인용 화장실,화장실
44711,37.608816,126.9069244,구현초마을마당 화장실,장애인용 화장실,화장실
44707,37.625277000000004,126.926227,새장골어린이공원 화장실,장애인용 화장실,화장실
44702,37.623067999999996,126.935973,불광사입구시범 화장실,장애인용 화장실,화장실
44698,37.595363,126.91733799999999,참다래어린이공원 화장실,장애인용 화장실,화장실
44694,37.598085,126.919405,포수동어린이공원 화장실,장애인용 화장실,화장실
44691,37.594173,126.92610800000001,백련근린공원 화장실,장애인용 화장실,화장실
44688,37.603962,126.923657,새록어린이공원 화장실,장애인용 화장실,화장실
44684,37.648686,126.9209064,진관동 복합청사(보훈회관) 화장실,장애인용 화장실,화장실
44680,37.584311,126.907002,증산동주민센터 화장실,장애인용 화장실,화장실
44676,37.59220300000001,126.91562900000001,응암3동 주민센터 화장실,장애인용 화장실,화장실
44673,37.594469000000004,126.923092,응암2동 주민센터 화장실,장애인용 화장실,화장실
44668,37.6006412,126.92673899999998,응암1동 주민센터 화장실,장애인용 화장실,화장실
44664,37.604352,126.915067,역촌동주민센터 화장실,장애인용 화장실,화장실
44730,37.604015999999994,126.916748,연서어린이공원 화장실,장애인용 화장실,화장실
44659,37.590253000000004,126.908387,신사2동주민센터 화장실,장애인용 화장실,화장실
44734,37.601077000000004,126.918456,역마을어린이공원 화장실,장애인용 화장실,화장실
44742,37.596024,126.911825,신흥어린이공원 화장실,장애인용 화장실,화장실
44807,37.630675,126.92330600000001,은평구민체육센터 화장실,장애인용 화장실,화장실
44802,37.614289,126.908999,구산동마을공원 화장실,장애인용 화장실,화장실
44798,37.598964,126.911171,새락골어린이공원 화장실,장애인용 화장실,화장실
44794,37.593462,126.915361,응암3동 공영주차장 화장실,장애인용 화장실,화장실
44791,37.592694,126.91225800000001,신사초등학교 화장실,장애인용 화장실,화장실
44787,37.60567800000001,126.92304399999999,평화공원 지하 공영주차장 화장실 화장실,장애인용 화장실,화장실
44783,37.603879,126.928347,은평문화예술회관 화장실,장애인용 화장실,화장실
44779,37.612998,126.912675,은평구시설관리공단 청사 화장실,장애인용 화장실,화장실
44775,37.580633,126.905833,증산 불광천 화장실,장애인용 화장실,화장실
44770,37.59630900000001,126.91542199999999,불광천 화장실,장애인용 화장실,화장실
44766,37.6036744,126.927195,녹번서근린공원 화장실,장애인용 화장실,화장실
44762,37.63365200000001,126.92081599999999,진관사입구 화장실,장애인용 화장실,화장실
44758,37.645271,126.921328,은평구상징녹지대 화장실,장애인용 화장실,화장실
44755,37.584328,126.903028,생활체육광장 화장실,장애인용 화장실,화장실
44752,37.579923,126.904078,까치어린이공원 화장실,장애인용 화장실,화장실
44749,37.58671500000001,126.911677,분토골어린이공원 화장실,장애인용 화장실,화장실
44746,37.582856,126.90649199999999,시루뫼어린이공원 화장실,장애인용 화장실,화장실
44738,37.606776,126.914092,역말어린이공원 화장실,장애인용 화장실,화장실
44810,37.630604999999996,126.9246861,은평구립축구장 화장실,장애인용 화장실,화장실
44654,37.584142,126.897506,수색동주민센터 화장실,장애인용 화장실,화장실
44645,37.610337,126.93204899999999,불광제1동 청사 화장실,장애인용 화장실,화장실
44564,37.5817114,126.896557,서울수색동우체국 화장실,장애인용 화장실,화장실
44561,37.612811,126.926724,서울불광우체국 화장실,장애인용 화장실,화장실
44555,37.612203,126.92615500000001,대은초등학교 화장실,장애인용 화장실,화장실
44552,37.613655,126.912531,서울갈현동우체국 화장실,장애인용 화장실,화장실
44547,37.61784960000001,126.90586299999998,서오릉주유소 화장실,장애인용 화장실,화장실
44544,37.592353,126.907496,서신초등학교 화장실,장애인용 화장실,화장실
44541,37.605164,126.90728600000001,서부장애인종합복지관 화장실,장애인용 화장실,화장실
44538,37.600696,126.92256100000002,서부병원 화장실,장애인용 화장실,화장실
44535,37.581755,126.904379,서부동산교회 화장실,장애인용 화장실,화장실
44532,37.5999476,126.923375,응암1센터 화장실,장애인용 화장실,화장실
44526,37.602103,126.921283,서부경찰서 화장실,장애인용 화장실,화장실
44521,37.60175200000001,126.926328,서대문세무서별관 화장실,장애인용 화장실,화장실
44518,37.597833,126.903849,상신초등학교 화장실,장애인용 화장실,화장실
44514,37.590037,126.906663,상신중학교 화장실,장애인용 화장실,화장실
44511,37.579021999999995,126.90119299999999,삼표수색주유소 화장실,장애인용 화장실,화장실
44508,37.623128,126.93163899999999,불광중학교 화장실,장애인용 화장실,화장실
44505,37.623247,126.927865,불광주유소 화장실,장애인용 화장실,화장실
44569,37.622403999999996,126.92731709999998,서울연신내우체국 화장실,장애인용 화장실,화장실
44650,37.626368,126.92726499999999,불광2동 주민센터 화장실,장애인용 화장실,화장실
44572,37.589307,126.919192,서울연은초등학교 화장실,장애인용 화장실,화장실
44579,37.588237,126.921449,서울응암초등학교 화장실,장애인용 화장실,화장실
44642,37.602456,126.929387,녹번동주민센터 화장실,장애인용 화장실,화장실
44639,37.611733,126.910328,구산동주민센터 화장실,장애인용 화장실,화장실
44638,37.629991,126.91650700000001,진관배수지 공원관리 화장실 화장실,장애인용 화장실,화장실
44635,37.644095,126.92875500000001,뉴타운1지구 공원관리 화장실 화장실,장애인용 화장실,화장실
44630,37.6084167,126.938645,장미테니스장 화장실,장애인용 화장실,화장실
44625,37.636738,126.91933200000001,구파발폭포 화장실 화장실,장애인용 화장실,화장실
44621,37.638103,126.91386299999999,탑골생태공원 화장실 화장실,장애인용 화장실,화장실
44617,37.61855900000001,126.91581200000002,갈현2동주민센터 화장실,장애인용 화장실,화장실
44612,37.6236469,126.91671299999999,갈현1동주민센터 화장실,장애인용 화장실,화장실
44609,37.618896,126.927996,은평구립도서관 화장실,장애인용 화장실,화장실
44606,37.602712,126.93181799999999,녹번종합복지관 화장실,장애인용 화장실,화장실
44602,37.597983,126.91219299999999,신사종합복지관 화장실,장애인용 화장실,화장실
44599,37.585023,126.89930859999998,은평종합복지관 화장실,장애인용 화장실,화장실
44595,37.594206,126.924851,시립은평청소년수련관 화장실,장애인용 화장실,화장실
44592,37.595099299999994,126.925903,시립은평병원 화장실,장애인용 화장실,화장실
44587,37.604110999999996,126.904504,시립서북병원 화장실,장애인용 화장실,화장실
44584,37.584876,126.918384,서울중앙교회 화장실,장애인용 화장실,화장실
44576,37.590951000000004,126.91762800000001,서울응암우체국 화장실,장애인용 화장실,화장실
44813,37.619682,126.912454,선일여자고등학교 화장실,장애인용 화장실,화장실
44816,37.618062,126.908774,선정중학교 화장실,장애인용 화장실,화장실
44819,37.629234999999994,126.91958799999999,성원E&S㈜은평지점 화장실,장애인용 화장실,화장실
44982,37.4700264193,126.93238585700001,삼성동1-4 화장실,장애인용 화장실,화장실
44980,37.4841326326,126.926371621,봉림 화장실,장애인용 화장실,화장실
44977,37.487371067699996,126.91339698899999,신대방 화장실,장애인용 화장실,화장실
44974,37.477814951199996,126.955627711,모래내공원 화장실,장애인용 화장실,화장실
44971,37.4654108734,127.109298203,세곡동공중화장실 화장실,장애인용 화장실,화장실
44969,37.595876000000004,126.909449,흥일주유소 화장실,장애인용 화장실,화장실
44966,37.6092515,126.92063799999998,한빛주유소 화장실,장애인용 화장실,화장실
44964,37.581801,126.893883,한국철도공사수색역 화장실,장애인용 화장실,화장실
44962,37.610679,126.93519450000001,한국여성정책연구원 화장실,장애인용 화장실,화장실
44959,37.610138,126.93496200000001,한국보건사회연구원 화장실,장애인용 화장실,화장실
44957,37.6177691,126.92273200000001,파레제페빌딩 화장실,장애인용 화장실,화장실
44954,37.578417,126.901983,타이거주유소 화장실,장애인용 화장실,화장실
44950,37.604489,126.924125,코끼리주유소 화장실,장애인용 화장실,화장실
44947,37.585122999999996,126.92184499999999,충암고등학교 화장실,장애인용 화장실,화장실
44944,37.620729,126.9194449,청구성심병원 화장실,장애인용 화장실,화장실
44941,37.643895,126.925574,진관중학교 화장실,장애인용 화장실,화장실
44938,37.58229,126.907587,증산주유소 화장실,장애인용 화장실,화장실
44985,37.469730735,126.93211934,삼성동1-5 화장실,장애인용 화장실,화장실
44935,37.581419,126.905041,증산종합시장 화장실,장애인용 화장실,화장실
44988,37.4715183726,126.932176508,삼성동1-6 화장실,장애인용 화장실,화장실
44993,37.4686812171,126.93084064899999,삼성동1-8 화장실,장애인용 화장실,화장실
45044,37.538507,127.125128,천호역공영주차장 화장실 화장실,장애인용 화장실,화장실
45041,37.4668986533,126.94765808,서울대정문 화장실,장애인용 화장실,화장실
45038,37.4747071106,126.97677469999999,예촌어린이공원 화장실,장애인용 화장실,화장실
45035,37.4596264518,126.928484427,삼성동2-6 화장실,장애인용 화장실,화장실
45032,37.460394451599996,126.929044324,삼성동2-5 화장실,장애인용 화장실,화장실
45029,37.4623238727,126.931167518,삼성동2-4 화장실,장애인용 화장실,화장실
45026,37.4660787615,126.930268811,삼성동2-3 화장실,장애인용 화장실,화장실
45023,37.465329227199994,126.930450367,삼성동2-2 화장실,장애인용 화장실,화장실
45020,37.464954300100004,126.930269855,삼성동2-1 화장실,장애인용 화장실,화장실
45017,37.4605354066,126.92970880799999,삼성동1-16 화장실,장애인용 화장실,화장실
45014,37.4619318708,126.93262373299999,삼성동1-15 화장실,장애인용 화장실,화장실
45011,37.484786342,126.903287292,조원동 화장실,장애인용 화장실,화장실
45008,37.468328368899996,126.931437835,삼성동1-13 화장실,장애인용 화장실,화장실
45005,37.4699464755,126.931250964,삼성동1-12 화장실,장애인용 화장실,화장실
45002,37.4680071183,126.93059709999999,삼성동1-11 화장실,장애인용 화장실,화장실
44999,37.469222289,126.931640496,삼성동1-10 화장실,장애인용 화장실,화장실
44996,37.4685664136,126.93174509200001,삼성동1-9 화장실,장애인용 화장실,화장실
44991,37.4701993692,126.932308831,삼성동1-7 화장실,장애인용 화장실,화장실
44932,37.583543,126.906798,증산센터 화장실,장애인용 화장실,화장실
44929,37.589447,126.912838,㈜에스지주유소 화장실,장애인용 화장실,화장실
44927,37.601546,126.926433,응암지구대 화장실,장애인용 화장실,화장실
44866,37.617135,126.91966200000002,연서이엔에쓰주유소 화장실,장애인용 화장실,화장실
44863,37.619408,126.921951,연서시장 화장실,장애인용 화장실,화장실
44860,37.601643,126.914336,역촌초등학교 화장실,장애인용 화장실,화장실
44857,37.613229,126.916195,역촌중앙시장 화장실,장애인용 화장실,화장실
44854,37.604405,126.91790900000001,역촌1치안센터 화장실,장애인용 화장실,화장실
44851,37.633164,126.92159299999999,은진초등학교 화장실,장애인용 화장실,화장실
44850,37.598345,126.918291,신진자동차고등학교 화장실,장애인용 화장실,화장실
44849,37.594062,126.91399399999999,신사제일주유소 화장실,장애인용 화장실,화장실
44847,37.597854,126.91097009999999,신사1센터 화장실,장애인용 화장실,화장실
44846,37.587129,126.88750900000001,신광주유소 화장실,장애인용 화장실,화장실
44843,37.593114,126.90404299999999,숭실중학교 화장실,장애인용 화장실,화장실
44839,37.581062,126.897676,수색제일주유소 화장실,장애인용 화장실,화장실
44835,37.589518,126.883771,수색센터 화장실,장애인용 화장실,화장실
44831,37.618837,126.933479,수리초등학교 화장실,장애인용 화장실,화장실
44828,37.586698,126.917667,세이브 마트 화장실,장애인용 화장실,화장실
44825,37.62755900000001,126.923464,세명컴퓨터고등학교 화장실,장애인용 화장실,화장실
44822,37.614658,126.91291299999999,세광교회 화장실,장애인용 화장실,화장실
44869,37.586988,126.909986,연서중학교 화장실,장애인용 화장실,화장실
44870,37.61902120000001,126.92257790000001,연신내메디컬센타 화장실,장애인용 화장실,화장실
44873,37.626278000000006,126.928343,연신초등학교 화장실,장애인용 화장실,화장실
44875,37.627454,126.92585600000001,연천중학교 화장실,장애인용 화장실,화장실
44924,37.596751,126.91931100000001,응암주유소 화장실,장애인용 화장실,화장실
44922,37.585875,126.917294,응암4센터 화장실,장애인용 화장실,화장실
44920,37.590517,126.9175249,응암3파출소 화장실,장애인용 화장실,화장실
44918,37.617781,126.92732099999999,은혜초등학교 화장실,장애인용 화장실,화장실
44915,37.610568,126.909042,은평중학교 화장실,장애인용 화장실,화장실
44912,37.6011049,126.92923600000002,은평주유소 화장실,장애인용 화장실,화장실
44909,37.626604,126.919604,은평장례식장 화장실,장애인용 화장실,화장실
44905,37.60132700000001,126.921204,은평우체국 화장실,장애인용 화장실,화장실
44502,37.614871,126.928269,불광미성상가 화장실,장애인용 화장실,화장실
44902,37.584072,126.892027,수색119안전센터 화장실,장애인용 화장실,화장실
44895,37.643837,126.912374,은평드림 화장실,장애인용 화장실,화장실
44893,37.6252814,126.920371,은평뉴타운주유소 화장실,장애인용 화장실,화장실
44889,37.609008,126.905973,은평고등학교 화장실,장애인용 화장실,화장실
44884,37.628128000000004,126.928599,은평경찰서 화장실,장애인용 화장실,화장실
44881,37.597634,126.918369,은명초등학교 화장실,장애인용 화장실,화장실
44880,37.600198999999996,126.92300900000001,은경빌딩 화장실,장애인용 화장실,화장실
44879,37.610782,126.914657,예일디자인고등학교 화장실,장애인용 화장실,화장실
44878,37.620773,126.929317,연천초등학교 화장실,장애인용 화장실,화장실
44899,37.628725,126.92002600000001,은평소방서 화장실,장애인용 화장실,화장실
44499,37.62448300000001,126.920178,불광3치안센터 화장실,장애인용 화장실,화장실
44496,37.618229,126.93294399999999,불광1치안센터 화장실,장애인용 화장실,화장실
44493,37.652335,126.95231100000001,북한산초등학교 화장실,장애인용 화장실,화장실
44014,37.5087216441,126.943751729,송학대 화장실,장애인용 화장실,화장실
44009,37.5082901473,126.95439722399999,고구동산 화장실,장애인용 화장실,화장실
44006,37.5084387381,126.927266145,대방배수지 주차장(대방공원) 화장실,장애인용 화장실,화장실
44000,37.5102271087,126.928540235,공원관리사무소 (대방공원) 화장실,장애인용 화장실,화장실
43995,37.492402334,126.943144301,초소앞(상도) 화장실,장애인용 화장실,화장실
43992,37.494030853299996,126.942111771,장승배드민턴장(상도) 화장실,장애인용 화장실,화장실
43987,37.479400942699996,126.96734416299999,까치산 화장실,장애인용 화장실,화장실
43979,37.4987278175,126.96216990200001,달마사입구(현충) 화장실,장애인용 화장실,화장실
43973,37.494990499400004,126.976207533,정금(현충) 화장실,장애인용 화장실,화장실
43970,37.46701470000001,126.8845413,벧엘감리교회 화장실,장애인용 화장실,화장실
43965,37.463599200000004,126.8803207,농협독산지점 화장실,장애인용 화장실,화장실
43959,37.4507752,126.8927173,농협금천지점 화장실,장애인용 화장실,화장실
43953,37.4532836,126.88540549999999,대명여울빛시장 화장실,장애인용 화장실,화장실
43947,37.4488924,126.8857364,일오삼플레이스 화장실,장애인용 화장실,화장실
43935,37.4342741,126.88635990000002,석수상가 화장실,장애인용 화장실,화장실
43915,37.447970700000006,126.885065,시흥빌딩 화장실,장애인용 화장실,화장실
43895,37.4817722,126.86427990000001,재능유통 화장실,장애인용 화장실,화장실
44019,37.5068310672,126.926815305,벽천(성남고후문) 화장실,장애인용 화장실,화장실
43883,37.46577960000001,126.87086770000002,고려테크온 화장실,장애인용 화장실,화장실
44025,37.485861143499996,126.97454154100001,삼일공원(경로당) 화장실,장애인용 화장실,화장실
44035,37.4997830544,126.93549387,도화 화장실,장애인용 화장실,화장실
44119,37.5491750559,126.86904226700001,리빙프라자(강서본점) 화장실,장애인용 화장실,화장실
44116,37.5511640297,126.87530370200001,양서빌딩 화장실,장애인용 화장실,화장실
44112,37.5504957394,126.87384271299999,벽산에어트리움 화장실,장애인용 화장실,화장실
44106,37.5581101453,126.83775801,하바나빌딩 화장실,장애인용 화장실,화장실
44100,37.5668980323,126.841424436,우리벤처타운 화장실,장애인용 화장실,화장실
44094,37.5671864411,126.84149174,에이스테크노타워 화장실,장애인용 화장실,화장실
44091,37.5589813559,126.839698265,화인빌딩 화장실,장애인용 화장실,화장실
44085,37.5582986258,126.843900879,에이스빌딩 화장실,장애인용 화장실,화장실
44079,37.583929,126.8911308,삼융주유소 화장실,장애인용 화장실,화장실
44074,37.531684999999996,126.968651,철길담장 옆 화장실,장애인용 화장실,화장실
44068,37.523158,126.961087,이촌로 화장실,장애인용 화장실,화장실
44063,37.545499,126.98400600000001,모자원 화장실,장애인용 화장실,화장실
44057,37.550428000000004,126.97621200000002,후암4 화장실,장애인용 화장실,화장실
44053,37.534169,126.99237099999999,이태원3 화장실,장애인용 화장실,화장실
44048,37.543063000000004,126.99014299999999,이태원2 화장실,장애인용 화장실,화장실
44045,37.534454,126.98883400000001,이태원1 화장실,장애인용 화장실,화장실
44040,37.4983341405,126.95963695,달마(현충) 화장실,장애인용 화장실,화장실
44030,37.5137210973,126.953615721,노들나루 화장실,장애인용 화장실,화장실
43874,37.4557794,126.8821975,금조빌딩 화장실,장애인용 화장실,화장실
43857,37.452710499999995,126.88704820000001,금빛공원 화장실,장애인용 화장실,화장실
43842,37.4577242,126.8872758,현대시장 화장실,장애인용 화장실,화장실
43556,37.47855300000001,126.89215,성부주유소 화장실,장애인용 화장실,화장실
43541,37.463094500000004,126.89717959999999,남부여성발전센터 화장실,장애인용 화장실,화장실
43525,37.446391799999994,126.8942675,kt 금천전화국 화장실,장애인용 화장실,화장실
43517,37.450179999999996,126.88905179999999,금천노인종합복지관 화장실,장애인용 화장실,화장실
43512,37.453162899999995,126.8919138,서울시흥동우체국 화장실,장애인용 화장실,화장실
43497,37.4350456,126.8947281,금천우체국 화장실,장애인용 화장실,화장실
43489,37.4779901,126.8910166,금천세무서 화장실,장애인용 화장실,화장실
43477,37.4761293,126.874958,가산문화센터 화장실,장애인용 화장실,화장실
43460,37.471919299999996,126.8758764,구로세관 화장실,장애인용 화장실,화장실
43441,37.478413700000004,126.88504409999999,가산우체국 화장실,장애인용 화장실,화장실
43430,37.48227070000001,126.8734284,1호선 가산디지털단지역 화장실,장애인용 화장실,화장실
43412,37.465657,126.88103829999999,1호선 독산역 화장실,장애인용 화장실,화장실
43399,37.4558127,126.8856088,1호선 금천구청역 화장실,장애인용 화장실,화장실
43391,37.459702899999996,126.9002888,시흥4동 공영주차장 화장실,장애인용 화장실,화장실
43382,37.4547684,126.9004453,삼성공영주차장 화장실,장애인용 화장실,화장실
43375,37.4621029,126.90181609999999,효봉공영주차장 화장실,장애인용 화장실,화장실
43362,37.4483015,126.9039545,시흥계곡 화장실,장애인용 화장실,화장실
43573,37.466766,126.88966299999998,동남주유소 화장실,장애인용 화장실,화장실
43575,37.476799,126.89911000000001,㈜태영유업 화장실,장애인용 화장실,화장실
43588,37.453441999999995,126.900618,KH에너지㈜직영 시흥대로 주유소 화장실,장애인용 화장실,화장실
43596,37.43725,126.90264599999999,SK네트웍스㈜ 박미주유소 화장실,장애인용 화장실,화장실
43827,37.4540506,126.88483259999998,대명시장 화장실,장애인용 화장실,화장실
43813,37.463615999999995,126.907404,산기슭공원화장실 화장실,장애인용 화장실,화장실
43799,37.452329999999996,126.92528899999999,호압사화장실 화장실,장애인용 화장실,화장실
43784,37.467569,126.90901299999999,금천체육공원1화장실 화장실,장애인용 화장실,화장실
43772,37.467762,126.90966,금천체육공원화장실 화장실,장애인용 화장실,화장실
43760,37.476376,126.901872,다목적광장화장실 화장실,장애인용 화장실,화장실
43746,37.45202800000001,126.907117,은행공원화장실 화장실,장애인용 화장실,화장실
43730,37.461709,126.898375,중앙에너비스㈜ 삼중가스지점 화장실,장애인용 화장실,화장실
44122,37.532497511799995,126.84380532600001,롯데리아 까치산역점 화장실,장애인용 화장실,화장실
43724,37.441471,126.903104,대득에너지(금천셀프주유소) 화장실,장애인용 화장실,화장실
43704,37.481897,126.875184,동광석유㈜ 구광주유소 화장실,장애인용 화장실,화장실
43686,37.472947,126.8979,SK네트웍스㈜ 이가주유소 화장실,장애인용 화장실,화장실
43670,37.467188,126.897154,주식회사 명보에너지 화장실,장애인용 화장실,화장실
43659,37.454265,126.905801,금천주유소 화장실,장애인용 화장실,화장실
43646,37.449557,126.903021,백산주유소 화장실,장애인용 화장실,화장실
43632,37.45884,126.89941999999999,백운주유소 화장실,장애인용 화장실,화장실
43619,37.480247,126.90736299999999,SK네트웍스㈜ 순환도로주유소 화장실,장애인용 화장실,화장실
43605,37.444398,126.90424399999999,일신주유소 화장실,장애인용 화장실,화장실
43714,37.4605,126.904623,경복에너지 화장실,장애인용 화장실,화장실
43336,37.4429674,126.89713710000001,시흥3동공영주차장 화장실,장애인용 화장실,화장실
44125,37.5457520327,126.860280726,리빙프라자(목동점) 화장실,장애인용 화장실,화장실
44136,37.612154,126.91685700000001,갈현베르빌 화장실,장애인용 화장실,화장실
44382,37.610292,126.932027,한국환경정책평가연구원 화장실,장애인용 화장실,화장실
44377,37.611452,126.911124,구산치안센터 화장실,장애인용 화장실,화장실
44374,37.6124476,126.909302,구산초등학교 화장실,장애인용 화장실,화장실
44368,37.609711,126.908896,구산중학교 화장실,장애인용 화장실,화장실
44363,37.604122,126.925354,경인주유소 화장실,장애인용 화장실,화장실
44357,37.603094,126.922266,경우회관 화장실,장애인용 화장실,화장실
44355,37.554751301399996,126.860368044,에어포트 비즈니스 센터 화장실,장애인용 화장실,화장실
44350,37.5779164564,126.812637381,무인화장실 화장실,장애인용 화장실,화장실
44347,37.5636703298,126.808390121,방화제2화장실 화장실,장애인용 화장실,화장실
44342,37.5625854553,126.808343098,방화제1화장실 화장실,장애인용 화장실,화장실
44338,37.5715206664,126.80452582299999,스카이주유소 화장실,장애인용 화장실,화장실
44334,37.5520206546,126.83094038700001,현대주유소 화장실,장애인용 화장실,화장실
44329,37.551908581,126.830696198,화곡역주유소 화장실,장애인용 화장실,화장실
44326,37.5492782519,126.846966065,해바라기주유소 화장실,장애인용 화장실,화장실
44324,37.554539342199995,126.854949769,하이웨이주유소 화장실,장애인용 화장실,화장실
44319,37.5296452353,126.85983561100001,경인고속주유소 화장실,장애인용 화장실,화장실
44314,37.5300560095,126.86283518,목화주유소 화장실,장애인용 화장실,화장실
44388,37.605326,126.91026200000002,그린빌딩 화장실,장애인용 화장실,화장실
44311,37.5315615971,126.856035141,뉴신정주유소 화장실,장애인용 화장실,화장실
44397,37.589347,126.9167551,남창빌딩 화장실,장애인용 화장실,화장실
44404,37.600482,126.9363315,녹번주유소 화장실,장애인용 화장실,화장실
44486,37.615494,126.92550700000001,보광빌딩 화장실,장애인용 화장실,화장실
44483,37.645053999999995,126.92912700000001,진관초등학교 화장실,장애인용 화장실,화장실
44478,37.627313,126.919242,박석고개주유소 화장실,장애인용 화장실,화장실
44473,37.586727,126.915878,무궁화주유소 화장실,장애인용 화장실,화장실
44468,37.617616999999996,126.919201,맥도날드연신내점 화장실,장애인용 화장실,화장실
44460,37.610728,126.91756799999999,롯데리아구산점 화장실,장애인용 화장실,화장실
44457,37.587875,126.91631399999999,롯데리아(응암5거리) 화장실,장애인용 화장실,화장실
44454,37.614067,126.92411200000001,동명여자정보산업고등학교 화장실,장애인용 화장실,화장실
44451,37.601847,126.90447990000001,덕산중학교 화장실,장애인용 화장실,화장실
44445,37.611826,126.929354,대한생명빌딩 화장실,장애인용 화장실,화장실
44437,37.611102,126.92895700000001,대조치안센터 화장실,장애인용 화장실,화장실
44432,37.622499,126.908199,대성고등학교 화장실,장애인용 화장실,화장실
44426,37.600103999999995,126.927371,은평등기소 화장실,장애인용 화장실,화장실
44423,37.586651,126.89992600000001,대림한숲타운 화장실,장애인용 화장실,화장실
44418,37.590131,126.91279399999999,삼성주유소 화장실,장애인용 화장실,화장실
44412,37.595607,126.91445800000001,다회주유소 화장실,장애인용 화장실,화장실
44407,37.609006,126.932351,녹번파출소 화장실,장애인용 화장실,화장실
44403,37.600627,126.930466,녹번시장 화장실,장애인용 화장실,화장실
44308,37.5295805274,126.856966649,신화곡주유소 화장실,장애인용 화장실,화장실
44303,37.533668125300004,126.843286964,대흥에너지산업㈜ 화장실,장애인용 화장실,화장실
44298,37.5473388147,126.87742844799999,양화교주유소 화장실,장애인용 화장실,화장실
44200,37.534376828,126.856450616,대은교회 화장실,장애인용 화장실,화장실
44197,37.5831262517,126.805007214,약사사 화장실,장애인용 화장실,화장실
44194,37.5518709144,126.850871845,유정빌딩 화장실,장애인용 화장실,화장실
44192,37.5502508075,126.87739652,동아그린프라자 화장실,장애인용 화장실,화장실
44189,37.5603627764,126.808946385,강서사랑나눔 푸드마켓 화장실,장애인용 화장실,화장실
44186,37.545102895300005,126.837428625,맥도널드 우장산점 화장실,장애인용 화장실,화장실
44183,37.5487694807,126.83578206,송화시장진흥협동조합 화장실,장애인용 화장실,화장실
44180,37.558541409200004,126.84218006799999,VIPS 화장실,장애인용 화장실,화장실
44174,37.557455814899996,126.838922881,한국맥도널드 송정역점 화장실,장애인용 화장실,화장실
44165,37.5345329095,126.83781815100001,롯데리아 화곡시장점 화장실,장애인용 화장실,화장실
44161,37.554417750700004,126.861744835,화곡빌딩 화장실,장애인용 화장실,화장실
44155,37.5532696756,126.851199514,삼보프라자 화장실,장애인용 화장실,화장실
44153,37.5545432129,126.85516705200001,대지산업빌딩 화장실,장애인용 화장실,화장실
44151,37.5548303781,126.854229429,VIP오피스텔 화장실,장애인용 화장실,화장실
44148,37.621387,126.9265642,불광지구대 화장실,장애인용 화장실,화장실
44145,37.619215999999994,126.91668600000001,갈현초등학교 화장실,장애인용 화장실,화장실
44141,37.615361,126.9128493,갈현주유소 화장실,장애인용 화장실,화장실
44206,37.5331809793,126.86001906899999,남부골목시장 화장실,장애인용 화장실,화장실
44211,37.531529727199995,126.84786217799999,까치산시장 고객만족센터 화장실,장애인용 화장실,화장실
44214,37.5348848027,126.83950547,화곡중앙골목시장 고객지원센터 화장실,장애인용 화장실,화장실
44217,37.566442594499996,126.845857918,가양현대주유소 화장실,장애인용 화장실,화장실
44295,37.548984048099996,126.87571472200001,염창동주유소 화장실,장애인용 화장실,화장실
44292,37.5511389244,126.865562348,진일주유소 화장실,장애인용 화장실,화장실
44286,37.5498163924,126.875545856,강동주유소 화장실,장애인용 화장실,화장실
44283,37.566293797600004,126.80604264,에어포트주유소 화장실,장애인용 화장실,화장실
44276,37.5655617105,126.812437424,방화주유소 화장실,장애인용 화장실,화장실
44272,37.5531236229,126.87438149799999,개화주유소 화장실,장애인용 화장실,화장실
44267,37.5516753931,126.83657238299999,우장산주유소 화장실,장애인용 화장실,화장실
44264,37.5578425222,126.84239431399999,관문주유소 화장실,장애인용 화장실,화장실
44131,37.590707,126.91758700000001,GS칼텍스㈜서부지점 화장실,장애인용 화장실,화장실
44261,37.5517861684,126.835888609,발산(오성)주유소 화장실,장애인용 화장실,화장실
44251,37.5468610809,126.86251470299999,등촌주유소 화장실,장애인용 화장실,화장실
44247,37.5487357054,126.862986545,GS칼텍스강서열린주유소 화장실,장애인용 화장실,화장실
44242,37.5533400766,126.858632385,경서에너지 공항로충전소 화장실,장애인용 화장실,화장실
44238,37.5567254599,126.86273651299999,청룡주유소 화장실,장애인용 화장실,화장실
44233,37.546879199,126.824515443,국제공항(U턴)주유소 화장실,장애인용 화장실,화장실
44228,37.5675006753,126.850301899,박물관주유소 화장실,장애인용 화장실,화장실
44222,37.570497465,126.838075259,세원 제일주유소 화장실,장애인용 화장실,화장실
44220,37.5697351086,126.841979868,SK가양주유소 화장실,장애인용 화장실,화장실
44255,37.5509439506,126.81471928299999,김포공항주유소 화장실,장애인용 화장실,화장실
0,37.4923175,127.118104,가락시장,장애인용 화장실,지하철
46522,37.553973,127.04632600000001,자전거체험장 화장실,장애인용 화장실,화장실
10720,37.505443799999995,127.1287254,오금중학교,장애인용 화장실,학교
4618,37.66093970000001,127.062634,상계14동우체국,장애인용 화장실,우체국
5173,37.6480434,127.0260804,쌍문1동주민센터,장애인용 화장실,지역자치센터
11418,37.4936495,127.0623081,정보학원(동호빌딩),장애인용 화장실,교육원·직업훈련소·학원
12246,37.5242054,126.9921146,한강중학교,장애인용 화장실,학교
8071,37.6592183,127.0792969,미래산업고등학교,장애인용 화장실,학교
6695,37.5748357,126.98815630000001,교동초등학교,장애인용 화장실,학교
4614,37.5814232,126.9811351,삼청파출소,장애인용 화장실,경찰서
6690,37.5480187,126.8523092,교남학교,장애인용 화장실,학교
3268,37.5067481,126.96078390000001,중앙대학교병원,장애인용 화장실,종합병원
1458,37.5964905,127.09361799999999,이마트 상봉점,장애인용 화장실,수퍼마켓·일용품 등의 도매·소매시장
1457,37.6138355,127.0775187,이마트 묵동점,장애인용 화장실,수퍼마켓·일용품 등의 도매·소매시장
3816,37.4862369,126.8933,구로3동 주민센터,장애인용 화장실,지역자치센터
13752,37.499580200000004,127.0578624,작은도서관,장애인용 화장실,도서관
12250,37.5252304,126.9651081,한강초등학교,장애인용 화장실,학교
5169,37.55806550000001,126.9292926,신촌지구대,장애인용 화장실,경찰서
2054,37.5403764,127.07182759999998,건국대학교병원,장애인용 화장실,종합병원
6683,37.50840820000001,126.95782220000001,괴아어린이집,장애인용 화장실,학교
6682,37.5511833,127.033875,광희중학교,장애인용 화장실,학교
1449,37.542398,126.95345379999999,이마트 마포공덕점,장애인용 화장실,수퍼마켓·일용품 등의 도매·소매시장
1448,37.5609162,126.7979123,이마트 공항점,장애인용 화장실,수퍼마켓·일용품 등의 도매·소매시장
3271,37.562194700000006,126.8092598,중앙병원장례식장,장애인용 화장실,종합병원
2055,37.5829554,127.0437795,경동요양병원,장애인용 화장실,종합병원
12252,37.572764,127.0688135,한건이엔씨학원,장애인용 화장실,교육원·직업훈련소·학원
10201,37.5247465,127.12841270000001,아이지에스이랭귀지센터,장애인용 화장실,교육원·직업훈련소·학원
8085,37.599520299999995,127.10366699999999,미리내어린이집,장애인용 화장실,학교
6674,37.547551,127.09134099999999,광진초등학교,장애인용 화장실,학교
1441,37.60297050000001,126.9189818,월드할인마트,장애인용 화장실,수퍼마켓·일용품 등의 도매·소매시장
11402,37.597798600000004,127.01351709999999,정덕초등학교,장애인용 화장실,학교
10205,37.5005393,127.0514347,아이티 윌 정보처리학원(여삼빌딩),장애인용 화장실,교육원·직업훈련소·학원
4106,37.57496810000001,127.0239418,동대문우체국,장애인용 화장실,우체국
11409,37.6339573,127.07313529999999,정민학교,장애인용 화장실,학교
1467,37.539935299999996,127.05352179999998,이마트 성수점,장애인용 화장실,수퍼마켓·일용품 등의 도매·소매시장
9537,37.6034138,126.9610221,세검정초등학교,장애인용 화장실,학교
4099,37.585100399999995,127.04576429999999,동대문경찰서,장애인용 화장실,경찰서
4094,37.5901987,127.0157085,돈암우체국,장애인용 화장실,우체국
5161,37.5595602,126.94351780000001,신촌동주민센터,장애인용 화장실,지역자치센터
9549,37.4977455,126.84503090000001,세라핌어린이집,장애인용 화장실,학교
8038,37.547105200000004,126.8446215,문성유치원,장애인용 화장실,학교
11437,37.55696079999999,126.8502634,정성어학원,장애인용 화장실,교육원·직업훈련소·학원
6738,37.4965404,126.8854764,구로초등학교,장애인용 화장실,학교
2898,37.6064619,127.0947354,신아타운(병원),장애인용 화장실,종합병원
9543,37.5050972,126.8491281,세곡초등학교,장애인용 화장실,학교
1482,37.6516448,127.04673259999998,이마트 창동점,장애인용 화장실,수퍼마켓·일용품 등의 도매·소매시장
4628,37.679914200000006,127.05494990000001,상계1동주민센터,장애인용 화장실,지역자치센터
10181,37.6429285,127.01779479999999,아이스타어린이집,장애인용 화장실,학교
5163,37.556938,126.94388959999999,신촌우체국,장애인용 화장실,우체국
8047,37.488547,127.1300929,문정중학교,장애인용 화장실,학교
6730,37.5002434,126.82819860000001,구로여자정보산업고등학교,장애인용 화장실,학교
13780,37.579777,126.98325249999999,정독도서관,장애인용 화장실,도서관
8052,37.4885091,127.1289324,문정초등학교,장애인용 화장실,학교
6725,37.4817665,126.837903,구로생명숲어린이집,장애인용 화장실,학교
11423,37.5096839,127.12588559999999,정상어학원,장애인용 화장실,교육원·직업훈련소·학원
1472,37.62690070000001,127.061334,이마트 월계점,장애인용 화장실,수퍼마켓·일용품 등의 도매·소매시장
11424,37.5539326,126.9339946,정상어학원(반석빌딩),장애인용 화장실,교육원·직업훈련소·학원
6712,37.6227146,127.0528145,교육촌어린이집,장애인용 화장실,학교
2893,37.510623700000004,127.0550563,시소모타워(강남물방울치과),장애인용 화장실,종합병원
2045,37.5921768,127.01548600000001,강윤빌딩(윤앤송한의원),장애인용 화장실,종합병원
13733,37.576073799999996,126.95251840000002,이진아기념도서관,장애인용 화장실,도서관
8057,37.48885960000001,126.91375,문창초등학교,장애인용 화장실,학교
12235,37.5375707,126.8839314,한가람고등학교,장애인용 화장실,학교
3263,37.6172311,127.079474,중랑프라임병원,장애인용 화장실,종합병원
12234,37.56456179999999,126.99239299999999,학교법인숭의학원,장애인용 화장실,교육원·직업훈련소·학원
10187,37.555235700000004,127.08717800000001,아이와나무어린이집,장애인용 화장실,학교
1475,37.6008414,126.92053419999999,이마트 은평점,장애인용 화장실,수퍼마켓·일용품 등의 도매·소매시장
9541,37.469060999999996,127.10692759999998,세곡도서관,장애인용 화장실,도서관
8056,37.495809,126.9223655,문창중학교,장애인용 화장실,학교
6662,37.6190534,127.0551517,광운초등학교,장애인용 화장실,학교
8089,37.467447899999996,126.9326162,미림학원(미림전산고교),장애인용 화장실,교육원·직업훈련소·학원
1435,37.6554297,127.06388999999999,와우쇼핑몰,장애인용 화장실,수퍼마켓·일용품 등의 도매·소매시장
3278,37.5067941,127.035055,차병원(별관),장애인용 화장실,종합병원
10221,37.5556945,126.95598190000001,아현초등학교,장애인용 화장실,학교
10222,37.4595565,126.88742079999999,안천중학교,장애인용 화장실,학교
8122,37.486090600000004,127.0823399,밀알학교,장애인용 화장실,학교
1411,37.49639370000001,126.90808670000001,썬프라자,장애인용 화장실,수퍼마켓·일용품 등의 도매·소매시장
2878,37.604334,127.10774939999999,시립북부노인병원,장애인용 화장실,종합병원
6620,37.521767,126.882925,관악고,장애인용 화장실,학교
12282,37.597307799999996,127.0582878,한국외국어대학교,장애인용 화장실,학교
2081,37.6151266,127.02960049999999,고려새한병원,장애인용 화장실,종합병원
1408,37.51718620000001,126.905592,신세계백화점 영등포점,장애인용 화장실,수퍼마켓·일용품 등의 도매·소매시장
12283,37.57155,126.9032875,한국우진학교,장애인용 화장실,학교
4595,37.627342299999995,127.0183885,삼양동주민센터,장애인용 화장실,지역자치센터
11375,37.579426500000004,127.061438,전동초등학교,장애인용 화장실,학교
2082,37.48003660000001,126.90642350000002,고려수요양병원,장애인용 화장실,종합병원
6614,37.5629055,126.8154269,공항중학교,장애인용 화장실,학교
1403,37.50704879999999,126.89024599999999,신도림테크노마트,장애인용 화장실,수퍼마켓·일용품 등의 도매·소매시장
6611,37.5667977,126.8509886,공진중학교,장애인용 화장실,학교
6597,37.5459333,126.953575,공덕초등학교,장애인용 화장실,학교
6598,37.6223603,127.08365459999999,공릉중학교,장애인용 화장실,학교
11369,37.580525,127.05645,전곡초등학교,장애인용 화장실,학교
13688,37.525628399999995,126.8889199,월드메르디앙비즈센터,장애인용 화장실,지역자치센터
5200,37.58675039999999,127.01660420000002,안암지구대,장애인용 화장실,경찰서
3804,37.6124585,127.07878000000001,교통센터,장애인용 화장실,지역자치센터
6624,37.480676,126.9618498,관악중학교,장애인용 화장실,학교
9505,37.539413399999994,127.05207959999998,성원중학교,장애인용 화장실,학교
11374,37.5854591,127.0710369,전동중학교,장애인용 화장실,학교
6607,37.6279136,127.0756852,공연초등학교,장애인용 화장실,학교
2091,37.48731420000001,126.9471,고운타워(유앤유치과),장애인용 화장실,종합병원
8133,37.58462,126.92282949999999,바둑학원,장애인용 화장실,교육원·직업훈련소·학원
9512,37.581459,127.0340906,성일중학교,장애인용 화장실,학교
4110,37.5939846,127.0204203,동선동주민센터,장애인용 화장실,지역자치센터
10228,37.5660182,127.07322909999999,안평초등학교,장애인용 화장실,학교
8034,37.518208,126.893275,문래초등학교,장애인용 화장실,학교
11383,37.5818177,127.05846319999999,전일중학교,장애인용 화장실,학교
5193,37.5760977,126.99592109999999,안국우체국,장애인용 화장실,우체국
6659,37.6207657,127.056284,광운중학교,장애인용 화장실,학교
2064,37.4963836,127.12350900000001,경찰병원,장애인용 화장실,종합병원
10212,37.5054408,127.0763997,아주중학교,장애인용 화장실,학교
4609,37.58501029999999,126.981857,삼청동주민센터,장애인용 화장실,지역자치센터
1432,37.493009,127.0391373,역삼종합시장,장애인용 화장실,수퍼마켓·일용품 등의 도매·소매시장
2884,37.5667241,127.0328111,시립장애인구강진료센터,장애인용 화장실,종합병원
2067,37.5534484,127.1573794,경희대학교 의과대학동서신의학병원,장애인용 화장실,종합병원
6656,37.537556200000004,126.82326880000001,광영고등학교,장애인용 화장실,학교
5189,37.5471119,126.9521692,아현동주민센터,장애인용 화장실,지역자치센터
8094,37.600908399999994,126.9277192,미성어린이집,장애인용 화장실,학교
6652,37.4646565,126.9257169,"광신중,고,상업고등학교",장애인용 화장실,학교
2883,37.5934797,126.92356389999999,시립은평병원,장애인용 화장실,종합병원
2068,37.484485600000006,126.97237040000002,경희의원,장애인용 화장실,종합병원
6646,37.5487993,126.9366973,광성중고등학교,장애인용 화장실,학교
12263,37.5130283,126.93992890000001,한교고시학원,장애인용 화장실,교육원·직업훈련소·학원
12266,37.57935379999999,127.0033287,한국 방송 통신대학,장애인용 화장실,학교
11390,37.5768869,126.81894809999999,정곡초등학교,장애인용 화장실,학교
9519,37.5295144,127.128504,성일초등학교,장애인용 화장실,학교
6629,37.480668,126.942925,관악초등학교,장애인용 화장실,학교
5192,37.5519634,126.9541163,아현치안센터,장애인용 화장실,경찰서
11386,37.4463705,126.9064759,전통예술중학교 제2인문관,장애인용 화장실,학교
4602,37.586936,126.98501409999999,삼청동우체국,장애인용 화장실,우체국
8112,37.621221399999996,127.01370390000001,미양초등학교,장애인용 화장실,학교
12276,37.648778,127.0643529,한국성서대학교(B동강당),장애인용 화장실,학교
13715,37.6189985,126.92829990000001,은평구립도서관,장애인용 화장실,도서관
3810,37.4930594,126.87577250000001,구로1동 주민센터,장애인용 화장실,지역자치센터
9523,37.56959260000001,126.8452265,성재중학교,장애인용 화장실,학교
12272,37.52294860000001,126.92807659999998,한국거래소 KRX 어린이집,장애인용 화장실,학교
8104,37.6241169,127.0121452,미양중고등학교,장애인용 화장실,학교
8103,37.6109654,127.0216,미아초등학교,장애인용 화장실,학교
1424,37.5279152,127.0418419,압구정갤러리아백화점EAST,장애인용 화장실,수퍼마켓·일용품 등의 도매·소매시장
1421,37.52987020000001,126.96487590000001,아이파크몰,장애인용 화장실,수퍼마켓·일용품 등의 도매·소매시장
11440,37.5087725,127.0718415,정신여중고,장애인용 화장실,학교
1487,37.4844044,126.8979251,이마트(구로점),장애인용 화장실,수퍼마켓·일용품 등의 도매·소매시장
3828,37.4948934,126.8867298,구로경찰서,장애인용 화장실,경찰서
1989,37.55086420000001,127.1281396,강동연세내과,장애인용 화장실,종합병원
9599,37.5054136,127.0933753,소망어린이집,장애인용 화장실,학교
1990,37.547326,127.12690829999998,강동연세병원,장애인용 화장실,종합병원
6857,37.6121866,126.995341,국민대경상관,장애인용 화장실,학교
6856,37.4973178,127.0033679,국립중앙도서관,장애인용 화장실,도서관
11499,37.484146,126.9095112,조원초등학교,장애인용 화장실,학교
5125,37.5390745,126.83068909999999,신월5동파출소,장애인용 화장실,경찰서
3234,37.56511,126.98887090000001,제일병원(본관),장애인용 화장실,종합병원
6852,37.53561679999999,126.9725506,국립서울맹학교(서울용산초등학교),장애인용 화장실,학교
3851,37.555171,127.0759043,군자동주민센터,장애인용 화장실,지역자치센터
7970,37.6094878,127.05067939999999,모안미술학원,장애인용 화장실,교육원·직업훈련소·학원
12175,37.604955,126.92808629999999,하나연어린이집,장애인용 화장실,학교
4665,37.4991218,126.93140659999999,상도3동주민센터,장애인용 화장실,지역자치센터
11494,37.50931660000001,127.12489040000001,조동기 논술학원,장애인용 화장실,교육원·직업훈련소·학원
6848,37.58486679999999,126.96868400000001,국립서울농학교,장애인용 화장실,학교
2924,37.5460999,126.8622409,실로암안과병원,장애인용 화장실,종합병원
4074,37.4661409,126.89977879999999,독산2동 주민센터,장애인용 화장실,지역자치센터
1517,37.4966085,126.89080279999999,하이마트 구로점,장애인용 화장실,수퍼마켓·일용품 등의 도매·소매시장
7977,37.52097979999999,126.8713832,목동중학교,장애인용 화장실,학교
7975,37.5092075,126.8605595,목동고등학교,장애인용 화장실,학교
6834,37.493085,126.87330870000001,구일초등학교,장애인용 화장실,학교
1999,37.544164,127.142799,강동한방병원,장애인용 화장실,종합병원
3239,37.6003158,127.1047423,조앤조병원,장애인용 화장실,종합병원
2929,37.5830193,127.0209729,심청요양병원,장애인용 화장실,종합병원
6837,37.531175,127.0327375,구정 고등학교,장애인용 화장실,학교
6840,37.6090631,126.9057418,구현초등학교,장애인용 화장실,학교
3847,37.4892552,126.89069450000001,구일지구대,장애인용 화장실,경찰서
5132,37.5218826,126.86198780000001,신정1동우체국,장애인용 화장실,우체국
13861,37.5570491,126.94039450000001,창광교회,장애인용 화장실,종교집회장
4664,37.5054831,126.9423083,상도2동주민센터,장애인용 화장실,지역자치센터
10139,37.4874525,126.9674467,아름다운 어린이집,장애인용 화장실,학교
5133,37.518581299999994,126.85429750000002,신정1동주민센터,장애인용 화장실,지역자치센터
11483,37.6064034,127.0364446,제일유치원,장애인용 화장실,학교
6866,37.4936278,126.9441143,국사봉중학교,장애인용 화장실,학교
7958,37.58465020000001,126.9254007,명지전문대학(금회:사회교육관),장애인용 화장실,학교
12155,37.5982664,127.07775320000002,피카소어린이집,장애인용 화장실,학교
4680,37.505008000000004,126.94485790000002,상도동우체국,장애인용 화장실,우체국
11527,37.602784,126.92916399999999,주민센터어린이집,장애인용 화장실,학교
9618,37.6057579,127.10683279999999,송곡고등학교,장애인용 화장실,학교
7939,37.554423,127.1420808,명일초등학교,장애인용 화장실,학교
1545,37.5560866,126.9358496,현대백화점,장애인용 화장실,수퍼마켓·일용품 등의 도매·소매시장
1974,37.5345705,127.1394696,강동성모요양병원(신관),장애인용 화장실,종합병원
1978,37.5361506,127.1353445,강동성심병원,장애인용 화장실,종합병원
5113,37.5336352,126.8290833,신월3동주민센터,장애인용 화장실,지역자치센터
3225,37.599654,127.09774409999999,장스여성병원,장애인용 화장실,종합병원
7944,37.5842386,126.9275541,명지고등학교,장애인용 화장실,학교
10111,37.6485893,127.02469070000001,쌍문초,장애인용 화장실,학교
12161,37.6410955,127.0715138,하계중학교,장애인용 화장실,학교
7945,37.580597,126.9230255,명지대인문캠퍼스 경상관,장애인용 화장실,학교
6880,37.56449170000001,127.06155,군자초등학교,장애인용 화장실,학교
4676,37.5006061,126.93778600000002,상도4동주민센터,장애인용 화장실,지역자치센터
7953,37.5357255,126.8328364,명지어린이집,장애인용 화장실,학교
11512,37.592907399999994,127.03181129999999,종암중학교,장애인용 화장실,학교
1535,37.6749285,127.0549116,하이마트상계점,장애인용 화장실,수퍼마켓·일용품 등의 도매·소매시장
1536,37.4939628,127.0131382,하이마트서초점,장애인용 화장실,수퍼마켓·일용품 등의 도매·소매시장
11513,37.5252104,126.86824270000001,좋은그림미술학원,장애인용 화장실,교육원·직업훈련소·학원
12168,37.64159779999999,126.9369375,하나고등학교,장애인용 화장실,학교
13880,37.6597352,127.04467109999999,창동자동차운전전문학원,장애인용 화장실,교육원·직업훈련소·학원
10125,37.540667299999996,127.0130797,씨이엘어학원,장애인용 화장실,교육원·직업훈련소·학원
6870,37.522716700000004,127.13305430000001,국제영어대학원대학교,장애인용 화장실,학교
3856,37.5548948,127.02166909999998,금호1가동주민센터,장애인용 화장실,지역자치센터
10118,37.58968170000001,126.91059569999999,써니어린이집,장애인용 화장실,학교
1984,37.551139299999996,127.12845779999999,강동센트럴요양병원,장애인용 화장실,종합병원
5117,37.5385791,126.8271622,신월5동주민센터,장애인용 화장실,지역자치센터
4068,37.537589000000004,126.95021470000002,도화동주민센터,장애인용 화장실,지역자치센터
5116,37.5246979,126.84009109999998,신월4동주민센터(신월정보문화센터),장애인용 화장실,지역자치센터
2931,37.52657620000001,127.10793500000001,아산병원,장애인용 화장실,종합병원
4587,37.62388350000001,127.018397,삼양동우체국,장애인용 화장실,우체국
10146,37.533248,126.9516979,아름다운어린이집,장애인용 화장실,학교
4660,37.5023146,126.9516271,상도1동주민센터,장애인용 화장실,지역자치센터
6789,37.5653686,126.93117360000001,구립우정어린이집,장애인용 화장실,학교
3838,37.6117664,126.91038209999999,구산동주민센터,장애인용 화장실,지역자치센터
2017,37.6541936,127.061435,강북예치과병원,장애인용 화장실,종합병원
9568,37.5642822,126.9442531,세브란스 어린이집,장애인용 화장실,학교
1498,37.5969033,127.090322,코스트코,장애인용 화장실,수퍼마켓·일용품 등의 도매·소매시장
8009,37.6210755,126.93245,무지개어린이집,장애인용 화장실,학교
6785,37.5711622,127.057724,구립우아세어린이집,장애인용 화장실,학교
11456,37.5254238,126.8608247,정일학원(부광빌딩),장애인용 화장실,교육원·직업훈련소·학원
11455,37.530738799999995,126.8518193,정일빌딩(대성학원),장애인용 화장실,교육원·직업훈련소·학원
12200,37.533324799999995,126.8414415,하람터어린이집,장애인용 화장실,학교
6777,37.4869325,126.95588899999998,구립성현햇살어린이집,장애인용 화장실,학교
9564,37.600172,127.07862649999998,세모네모재능어린이집,장애인용 화장실,학교
2021,37.64566720000001,127.03339869999999,강북힘찬병원,장애인용 화장실,종합병원
10166,37.4889314,126.85322009999999,아이빌어린이집,장애인용 화장실,학교
3253,37.5656593,127.0159019,중구보건분소청사,장애인용 화장실,종합병원
8018,37.6090366,127.0736303,묵현초등학교,장애인용 화장실,학교
12204,37.4960823,126.9818062,하랑숲어린이집,장애인용 화장실,학교
2900,37.5795382,127.0681561,신우요양병원,장애인용 화장실,종합병원
9553,37.51872570000001,127.13432979999999,세륜초등학교,장애인용 화장실,학교
5157,37.6435183,127.0346132,신창파출소,장애인용 화장실,경찰서
8027,37.5205064,126.88405719999999,문래중학교,장애인용 화장실,학교
3256,37.5645915,127.01511049999999,중구보건소청사,장애인용 화장실,종합병원
8026,37.485039,127.1279441,문덕일초등학교,장애인용 화장실,학교
8005,37.558581,127.15324209999999,묘곡초등학교,장애인용 화장실,학교
10174,37.62197379999999,126.92593870000002,아이숲어린이집,장애인용 화장실,학교
3833,37.495472,126.88753600000001,구로구청,장애인용 화장실,지역자치센터
11446,37.50324570000001,127.1008135,정원유치원(제이엠어학원으로변경),장애인용 화장실,교육원·직업훈련소·학원
4090,37.5980218,127.0105375,돈암2동주민센터,장애인용 화장실,지역자치센터
5153,37.5144202,126.8596862,신정7동주민센터,장애인용 화장실,지역자치센터
4640,37.671480700000004,127.0778538,상계4동치안센터,장애인용 화장실,경찰서
9557,37.6277526,126.9233875,세명컴퓨터고등학교,장애인용 화장실,학교
6758,37.4977003,126.95162260000001,구립로야어린이집,장애인용 화장실,학교
9587,37.560422100000004,126.863628,세현고등학교,장애인용 화장실,학교
13828,37.560651799999995,127.0221209,중구청소년수련관,장애인용 화장실,수련시설
5147,37.515156899999994,126.8547793,신정3동주민센터,장애인용 화장실,지역자치센터
3845,37.5472469,127.0899376,구의제2동주민센터,장애인용 화장실,지역자치센터
9584,37.5532771,127.07107309999999,세종대학교애지헌,장애인용 화장실,학교
4079,37.4751889,126.90318090000001,독산3동 주민센터,장애인용 화장실,지역자치센터
6824,37.489511799999995,126.9468142,구암초등학교,장애인용 화장실,학교
2004,37.6099209,127.07820120000001,강북21세기병원,장애인용 화장실,종합병원
6819,37.4929244,126.94853379999999,구암중학교,장애인용 화장실,학교
10151,37.5130386,126.93757240000002,아모르이그잼학원,장애인용 화장실,교육원·직업훈련소·학원
6818,37.6120371,126.90942690000001,구산초등학교,장애인용 화장실,학교
2917,37.5251061,126.9056672,신화병원,장애인용 화장실,종합병원
2007,37.5684083,126.96775,강북삼성병원 본관,장애인용 화장실,종합병원
11471,37.5883079,127.01391070000001,제나어린이집,장애인용 화장실,학교
6810,37.6097956,126.90902700000001,구산중학교,장애인용 화장실,학교
7988,37.52699000000001,126.8730512,목운중학교,장애인용 화장실,학교
7989,37.5430283,126.8825314,목원초등학교,장애인용 화장실,학교
13843,37.50227520000001,127.06417079999999,즐거운 도서관,장애인용 화장실,도서관
6807,37.517178200000004,126.85657150000002,구립해바라기어린이집,장애인용 화장실,학교
10154,37.5600628,127.0845775,아이들세상어린이집,장애인용 화장실,학교
6794,37.5437814,127.13850120000001,구립천호어린이집,장애인용 화장실,학교
5146,37.5346743,126.8287317,신정3동우체국,장애인용 화장실,우체국
2014,37.56613400000001,126.9276737,강북성모병원,장애인용 화장실,종합병원
12196,37.632476000000004,127.0150145,하람어린이집,장애인용 화장실,학교
4086,37.6034235,127.02636809999998,돈암1동주민센터,장애인용 화장실,지역자치센터
6800,37.489746000000004,126.95836809999999,구립토담어린이집,장애인용 화장실,학교
10160,37.5610279,127.15866470000002,아이레네해밀어린이집,장애인용 화장실,학교
13834,37.61516629999999,127.08692020000001,중랑구립정보도서관,장애인용 화장실,도서관
7994,37.5133739,126.8741831,목일중학교,장애인용 화장실,학교
2912,37.5525869,126.9337353,신촌연세병원,장애인용 화장실,종합병원
3246,37.58184110000001,126.9692197,종로보건소,장애인용 화장실,종합병원
9579,37.6575434,127.06183419999999,세일학원,장애인용 화장실,교육원·직업훈련소·학원
4080,37.4675814,126.9021855,독산4동청사,장애인용 화장실,경찰서
6805,37.526869700000006,126.848467,구립한아름어린이집,장애인용 화장실,학교
5143,37.524452399999994,126.8635757,신정2지구대,장애인용 화장실,경찰서
3224,37.52359000000001,126.8757936,자생한방병원(대경프라자),장애인용 화장실,종합병원
13681,37.6286481,127.056122,월계문화정보도서관,장애인용 화장실,도서관
3287,37.5333949,127.123392,참소망의원,장애인용 화장실,종합병원
8275,37.552476,126.83013899999999,버클리어린이집,장애인용 화장실,학교
3334,37.507275,126.9401875,청하병원,장애인용 화장실,종합병원
8278,37.5036744,127.061001,버틀러학원(방우빌딩),장애인용 화장실,교육원·직업훈련소·학원
6429,37.5045563,127.1412317,거여초등학교,장애인용 화장실,학교
11250,37.5020454,127.08695790000002,자연아이어린이집,장애인용 화장실,학교
9449,37.562683,126.909225,성서중학교,장애인용 화장실,학교
5265,37.5026388,127.02591389999999,역삼지구대(증축),장애인용 화장실,경찰서
4540,37.4866922,126.9720425,사당3동주민센터,장애인용 화장실,지역자치센터
2835,37.5450178,126.83676489999999,소리의원@강서점,장애인용 화장실,종합병원
4536,37.488383299999995,126.97759950000001,사당2동주민센터,장애인용 화장실,지역자치센터
9445,37.5532107,126.9114533,성산초등학교,장애인용 화장실,학교
3768,37.4850281,126.93314699999999,관악우체국,장애인용 화장실,우체국
6422,37.510436,127.05128459999999,개포 어린이집,장애인용 화장실,학교
8287,37.6294045,127.04060109999999,번동초등학교,장애인용 화장실,학교
6430,37.48786320000001,127.1466553,거원중학교,장애인용 화장실,학교
2175,37.4520002,126.9021196,김홍일내과,장애인용 화장실,종합병원
12377,37.613279799999994,126.91716940000002,한앎학원,장애인용 화장실,교육원·직업훈련소·학원
11243,37.6472464,127.03152890000001,인화어린이집,장애인용 화장실,학교
5271,37.604403999999995,126.91510840000001,역촌2동사무소,장애인용 화장실,지역자치센터
8290,37.5277506,126.8356709,베나다어린이집,장애인용 화장실,학교
12378,37.5632292,127.04610749999999,한양대부속고등학교,장애인용 화장실,학교
9439,37.547619899999994,126.91597800000001,성산중학교,장애인용 화장실,학교
6414,37.4850556,127.05929509999999,개포 고등학교,장애인용 화장실,학교
4532,37.4830915,126.9787808,사당1동주민센터,장애인용 화장실,지역자치센터
2830,37.566578299999996,127.0616386,세이페병원,장애인용 화장실,종합병원
9435,37.5685,126.9136625,성사중학교,장애인용 화장실,학교
2180,37.537369500000004,126.8367068,나누리병원,장애인용 화장실,종합병원
5276,37.5645115,126.9220327,연남동주민센터,장애인용 화장실,지역자치센터
6409,37.4885768,126.8499736,개웅초등학교,장애인용 화장실,학교
12387,37.549142700000004,127.1571787,한영고등학교,장애인용 화장실,학교
1254,37.558949299999995,127.0092626,광희시장,장애인용 화장실,수퍼마켓·일용품 등의 도매·소매시장
10300,37.543919700000004,126.8750821,양화초등학교,장애인용 화장실,학교
12370,37.6345911,127.01210139999999,한신대학교신학대학원,장애인용 화장실,교육원·직업훈련소·학원
1268,37.4800727,126.9028666,농협관악농산물백화점,장애인용 화장실,수퍼마켓·일용품 등의 도매·소매시장
5252,37.5223437,126.92625759999999,여의도우체국,장애인용 화장실,우체국
4550,37.4809888,126.97167040000001,사당4동주민센터,장애인용 화장실,지역자치센터
1290,37.517464600000004,126.8964926,로데오,장애인용 화장실,수퍼마켓·일용품 등의 도매·소매시장
6462,37.58877920000001,126.9698126,경기상업고등학교,장애인용 화장실,학교
11276,37.515669700000004,127.08918290000001,잠신고등학교,장애인용 화장실,학교
3778,37.5428595,127.08389790000001,광진경찰서,장애인용 화장실,경찰서
6461,37.5649767,126.9623605,경기대학교(학생회관),장애인용 화장실,학교
9460,37.54761110000001,127.0380129,성수고등학교,장애인용 화장실,학교
12355,37.5747593,126.80804509999999,한서고등학교,장애인용 화장실,학교
6457,37.5630687,126.9627311,경기대학교 실습실,장애인용 화장실,학교
12359,37.553628,126.9497996,한서초등학교,장애인용 화장실,학교
6454,37.631931200000004,127.0748211,경기기계공업고등학교,장애인용 화장실,학교
10291,37.519763899999994,126.8308121,양천중학교,장애인용 화장실,학교
8259,37.51192800000001,126.8448662,백암고등학교,장애인용 화장실,학교
8262,37.6564989,127.03598570000001,백운중,장애인용 화장실,학교
5259,37.5300729,126.92666170000001,여의지구대,장애인용 화장실,경찰서
11264,37.6590571,127.050725,자운고,장애인용 화장실,학교
5264,37.4959622,127.04682930000001,역삼2동 주민센터(문화센터),장애인용 화장실,지역자치센터
10299,37.519806700000004,126.8960307,양화중학교,장애인용 화장실,학교
6438,37.4848848,126.91495230000001,건영유치원,장애인용 화장실,학교
1273,37.6059513,127.09566909999998,농협하나로마트,장애인용 화장실,수퍼마켓·일용품 등의 도매·소매시장
2166,37.5266565,127.04597659999999,김인권 성형외과(유덕빌딩),장애인용 화장실,종합병원
2163,37.528514799999996,127.0352314,김영수병원(구정빌딩),장애인용 화장실,종합병원
11236,37.471531299999995,126.9701124,인헌고등학교,장애인용 화장실,학교
3771,37.5444545,127.1033392,광나루지구대,장애인용 화장실,경찰서
10294,37.570271999999996,126.83941659999999,양천초등학교,장애인용 화장실,학교
3329,37.4990628,126.92877,청솔한의원,장애인용 화장실,종합병원
6445,37.4867643,127.0657027,경기 여자고등학교,장애인용 화장실,학교
12362,37.5825085,127.0102929,한성대학교미래관,장애인용 화장실,학교
9454,37.5606847,126.9112531,성서초등학교,장애인용 화장실,학교
8263,37.6533602,127.013653,백운초,장애인용 화장실,학교
6443,37.487637799999995,127.14479479999999,건원초등학교,장애인용 화장실,학교
6406,37.4874937,126.85107350000001,개웅중학교,장애인용 화장실,학교
10315,37.5964355,127.0958318,어울림어린이집,장애인용 화장실,학교
8302,37.6174792,126.9314761,별산솔어린이집,장애인용 화장실,학교
2820,37.512049499999996,126.92238020000002,성애병원 본관,장애인용 화장실,종합병원
6379,37.543019,126.82927409999999,강신초등학교,장애인용 화장실,학교
1215,37.55993370000001,126.8405133,NC백화점,장애인용 화장실,수퍼마켓·일용품 등의 도매·소매시장
9419,37.5642225,127.0226728,성동글로벌경영고등학교,장애인용 화장실,학교
11213,37.5314159,127.1250237,이호어린이집,장애인용 화장실,학교
6375,37.5152146,126.83863649999999,강신중학교,장애인용 화장실,학교
4518,37.610378600000004,126.9321076,불광1동주민센터,장애인용 화장실,지역자치센터
2211,37.654358,127.056473,노원보건소,장애인용 화장실,종합병원
5291,37.5537792,126.8709835,염창주민센터,장애인용 화장실,지역자치센터
12405,37.585113299999996,127.08882220000001,한터어린이집,장애인용 화장실,학교
6372,37.5224553,126.84096100000001,강서초등학교,장애인용 화장실,학교
5293,37.551880600000004,126.8674139,염창치안센터,장애인용 화장실,경찰서
12407,37.47039390000001,126.9407415,합격의 법학원,장애인용 화장실,교육원·직업훈련소·학원
2212,37.6591873,127.0756768,노원솔요양병원,장애인용 화장실,종합병원
2815,37.5961232,127.0999378,성심메디컬의원,장애인용 화장실,종합병원
5296,37.52584760000001,126.9009426,영등포경찰서,장애인용 화장실,경찰서
9414,37.5654439,126.9971196,성동고등학교,장애인용 화장실,학교
1199,37.664194200000004,127.0658291,GS슈퍼상계점,장애인용 화장실,수퍼마켓·일용품 등의 도매·소매시장
8371,37.6136152,127.09232150000001,봉화초등학교,장애인용 화장실,학교
10345,37.532117799999995,126.8479706,에반어린이집,장애인용 화장실,학교
8370,37.5961237,127.10415,봉화중학교,장애인용 화장실,학교
4148,37.5426586,126.86250090000001,등촌2동주민센터,장애인용 화장실,지역자치센터
6360,37.575748600000004,126.81577379999999,강서공고,장애인용 화장실,학교
8341,37.5100424,126.95357539999999,본동초등학교,장애인용 화장실,학교
9407,37.5496403,127.141531,성덕여자상업고등학교,장애인용 화장실,학교
3754,37.5623593,126.8082939,공항지구대,장애인용 화장실,경찰서
2221,37.65743629999999,127.06564329999999,노원스마트요양병원,장애인용 화장실,종합병원
11204,37.5127205,126.9463416,이투스학원,장애인용 화장실,교육원·직업훈련소·학원
11205,37.650502,127.076001,이튼학원,장애인용 화장실,교육원·직업훈련소·학원
4510,37.6534456,127.05821440000001,북부고용지원센터,장애인용 화장실,지역자치센터
6366,37.5481739,126.8503382,강서유치원,장애인용 화장실,학교
8365,37.4911218,126.95525159999998,봉현초등학교,장애인용 화장실,학교
10284,37.53356820000001,126.87625049999998,양천도서관,장애인용 화장실,도서관
9422,37.5331782,127.08952649999999,성동초등학교,장애인용 화장실,학교
2822,37.4766045,126.89289140000001,성지병원,장애인용 화장실,종합병원
3344,37.5475805,127.0677088,최차혜병원,장애인용 화장실,종합병원
8308,37.532742299999995,126.9967117,보광초등학교,장애인용 화장실,학교
5281,37.5470794,126.9456601,염리동주민센터,장애인용 화장실,지역자치센터
1241,37.5284803,127.0400742,갤러리아백화점WEST,장애인용 화장실,수퍼마켓·일용품 등의 도매·소매시장
1240,37.576777299999996,126.8118723,강서농협하나로마트,장애인용 화장실,수퍼마켓·일용품 등의 도매·소매시장
8309,37.66184260000001,127.0687257,보듬이 나눔이어린이집,장애인용 화장실,학교
4527,37.5612117,127.04588000000001,사근동주민센터,장애인용 화장실,지역자치센터
9431,37.594404,127.01585890000001,성북메가스터디학원,장애인용 화장실,교육원·직업훈련소·학원
2189,37.4694995,126.92035320000001,난곡보건분소,장애인용 화장실,종합병원
1235,37.553503899999995,126.820806,강서농수산물도매시장,장애인용 화장실,수퍼마켓·일용품 등의 도매·소매시장
6398,37.489727200000004,126.8583074,개봉초등학교,장애인용 화장실,학교
12391,37.4964113,126.8515463,한영신학 대학교,장애인용 화장실,학교
4525,37.6524484,127.07734750000002,불암파출소,장애인용 화장실,경찰서
8321,37.5286188,127.08219140000001,보람하이츠빌(보람유치원),장애인용 화장실,학교
3762,37.4815018,126.9102348,관악구청,장애인용 화장실,지역자치센터
11223,37.565860799999996,127.01288059999999,이화여자고등학교,장애인용 화장실,학교
6394,37.482769299999994,126.8502362,개명초등학교,장애인용 화장실,학교
3353,37.5731883,127.071546,코리아병원,장애인용 화장실,종합병원
6381,37.51641420000001,126.83394840000001,강월초등학교,장애인용 화장실,학교
10330,37.50768529999999,127.12196780000001,엄마품어린이집,장애인용 화장실,학교
2203,37.504693100000004,127.04802340000002,네모치과의원(신도타워),장애인용 화장실,종합병원
6386,37.5033763,126.93099029999999,강현중학교,장애인용 화장실,학교
11220,37.4838695,126.93760290000002,이화어학원,장애인용 화장실,교육원·직업훈련소·학원
8337,37.4972394,127.13842350000002,보인중고교,장애인용 화장실,학교
4522,37.6265021,126.9272892,불광2동주민센터,장애인용 화장실,지역자치센터
1226,37.4773527,126.88771840000001,W-MALL,장애인용 화장실,수퍼마켓·일용품 등의 도매·소매시장
2196,37.5941626,127.09968300000001,날아라정형외과,장애인용 화장실,종합병원
3350,37.5422911,127.12531070000001,친구병원,장애인용 화장실,종합병원
2194,37.58163920000001,127.0295165,날개병원,장애인용 화장실,종합병원
1227,37.4776846,127.1249925,가든파이브 NC백화점(LIFE관),장애인용 화장실,수퍼마켓·일용품 등의 도매·소매시장
13529,37.4791965,127.02592549999999,양재자동차학원,장애인용 화장실,교육원·직업훈련소·학원
8332,37.5431165,126.98425630000001,보성여자중학교,장애인용 화장실,학교
5251,37.5176984,126.93462179999999,여의도동 주민센터,장애인용 화장실,지역자치센터
8247,37.48137929999999,126.99640020000001,백석학원,장애인용 화장실,교육원·직업훈련소·학원
6469,37.58638870000001,127.01491999999999,경동고등학교본관,장애인용 화장실,학교
1367,37.5278142,126.90469420000001,빅마켓(롯데마트 영등포점),장애인용 화장실,수퍼마켓·일용품 등의 도매·소매시장
12312,37.485225,127.1336044,한림초중연예예술고교,장애인용 화장실,학교
6554,37.609814,127.0014304,고려사대부속고등학교,장애인용 화장실,학교
11341,37.5666429,127.0707858,장평중학교,장애인용 화장실,학교
2110,37.5081511,127.0647955,광혜병원,장애인용 화장실,종합병원
3296,37.47993579999999,127.0386919,참포도나무병원,장애인용 화장실,종합병원
10248,37.5247802,126.8495351,양강중학교,장애인용 화장실,학교
13654,37.5468052,127.06330530000001,우림이비즈센터,장애인용 화장실,지역자치센터
11333,37.5658284,126.9713043,"장충중,고등학교",장애인용 화장실,학교
6549,37.5600667,127.160775,고덕중학교,장애인용 화장실,학교
11332,37.612356,127.050051,장위초등학교,장애인용 화장실,학교
6548,37.5047439,126.99697140000002,계성초등학교,장애인용 화장실,학교
9491,37.469353399999996,126.9206663,성아어린이집,장애인용 화장실,학교
4576,37.5908596,127.0146473,삼선동주민센터,장애인용 화장실,지역자치센터
8180,37.6657177,127.03148840000001,방학중,장애인용 화장실,학교
12315,37.5376273,126.88211940000001,한림학원,장애인용 화장실,교육원·직업훈련소·학원
5221,37.4716896,127.02668159999999,양재1동주민센터,장애인용 화장실,지역자치센터
9477,37.5938483,127.023331,성신초등학교,장애인용 화장실,학교
3302,37.5765433,127.0477019,천사병원,장애인용 화장실,종합병원
3790,37.55187120000001,127.01257890000001,광희동청사,장애인용 화장실,경찰서
1351,37.5651843,126.8984946,마포농수산물시장,장애인용 화장실,수퍼마켓·일용품 등의 도매·소매시장
2120,37.4932305,126.88516709999999,구로고대부속병원장례식장,장애인용 화장실,종합병원
1353,37.559004200000004,126.9451739,메르체쇼핑몰,장애인용 화장실,수퍼마켓·일용품 등의 도매·소매시장
4124,37.4980518,126.9243757,동작우체국,장애인용 화장실,우체국
2119,37.492052,126.88487009999999,구로고대병원,장애인용 화장실,종합병원
4571,37.5909128,127.0451175,산업연구원우체국,장애인용 화장실,우체국
2856,37.533803999999996,127.00425790000001,순천향대학교병원(교수연구동),장애인용 화장실,종합병원
9484,37.5288657,126.8975723,성심학원,장애인용 화장실,교육원·직업훈련소·학원
8185,37.578088,126.81489760000001,방화동 노유자시설(어린이집),장애인용 화장실,학교
8184,37.66410910000001,127.031806,방학초,장애인용 화장실,학교
6543,37.6628975,127.0681263,계상초등학교,장애인용 화장실,학교
3301,37.6519078,127.0455297,창동제일의원,장애인용 화장실,종합병원
12332,37.6280507,127.01581340000001,한빛맹학교,장애인용 화장실,학교
5216,37.5650496,127.0163878,약수지구대,장애인용 화장실,경찰서
1368,37.47063660000001,126.8956535,빅마켓(롯데마트금천점),장애인용 화장실,수퍼마켓·일용품 등의 도매·소매시장
12295,37.5198884,127.13086259999999,한국체육대학,장애인용 화장실,학교
5205,37.5517143,127.1272846,암사2동 주민자치센터,장애인용 화장실,지역자치센터
10232,37.59755870000001,126.92874240000002,알로시오초등학교,장애인용 화장실,학교
11361,37.5674167,126.96635,적십자 간호대학교,장애인용 화장실,학교
11358,37.499711,127.13740359999998,재미솔솔어린이집,장애인용 화장실,학교
5208,37.5549947,127.1408155,암사3동 주민센터,장애인용 화장실,지역자치센터
4586,37.470124299999995,126.9329682,삼성동 주민센터,장애인용 화장실,지역자치센터
6582,37.50070770000001,126.85700609999999,고척초등학교,장애인용 화장실,학교
6581,37.500325399999994,126.86215959999998,고척중학교,장애인용 화장실,학교
8152,37.5084114,127.1206375,방산고등학교,장애인용 화장실,학교
2096,37.5339209,127.12603259999999,공안과,장애인용 화장실,종합병원
6579,37.508658399999995,126.8507748,고척고등학교,장애인용 화장실,학교
3799,37.571993299999995,126.9619051,교남동 주민센터,장애인용 화장실,지역자치센터
12299,37.52877,126.9965892,한국폴리텍1대학,장애인용 화장실,학교
8155,37.5097182,127.1208725,방산초등학교,장애인용 화장실,학교
2869,37.5753635,127.0315258,시립동부병원,장애인용 화장실,종합병원
4118,37.5131459,126.94285959999999,동작경찰서,장애인용 화장실,경찰서
8170,37.5134365,127.1204937,방이초등학교,장애인용 화장실,학교
4123,37.51245,126.9395,동작구청,장애인용 화장실,지역자치센터
9495,37.589899100000004,126.9196945,성아유치원,장애인용 화장실,학교
6559,37.5974571,127.019954,고명정보산업고등학교,장애인용 화장실,학교
8162,37.547341700000004,127.0457625,방송통신대,장애인용 화장실,학교
11346,37.5060213,127.08899040000001,장학학원,장애인용 화장실,교육원·직업훈련소·학원
2104,37.514287,127.06216380000001,광동한방병원,장애인용 화장실,종합병원
11347,37.513123900000004,126.915049,장훈고등학교,장애인용 화장실,학교
6563,37.4992235,126.86524140000002,고산초등학교,장애인용 화장실,학교
2101,37.4781549,126.95148470000001,관악구보건소,장애인용 화장실,종합병원
2868,37.516146,127.0365822,시너지병원,장애인용 화장실,종합병원
6567,37.4975036,126.8657277,고원초등학교,장애인용 화장실,학교
10245,37.5541048,127.1351898,앨리스어린이집,장애인용 화장실,학교
12300,37.539402700000004,127.00490090000001,한남초등학교,장애인용 화장실,학교
1377,37.667617,127.0455413,빅마켓(롯데마트도봉점),장애인용 화장실,수퍼마켓·일용품 등의 도매·소매시장
8147,37.5130908,127.12375159999998,밤비니어학원,장애인용 화장실,교육원·직업훈련소·학원
11318,37.5091089,127.13073329999999,장앤김수학,장애인용 화장실,교육원·직업훈련소·학원
11316,37.5981751,127.0371861,장암교회어린이집,장애인용 화장실,학교
4131,37.5801261,127.08299869999999,두산아파트(면목7동우체국),장애인용 화장실,우체국
6493,37.539581899999995,127.05821440000001,경수중학교,장애인용 화장실,학교
1313,37.497040999999996,127.05321529999999,롯데백화점 강남점,장애인용 화장실,수퍼마켓·일용품 등의 도매·소매시장
6492,37.56157329999999,126.85819280000001,경서중학교,장애인용 화장실,학교
8227,37.4467347,126.9050196,백산초등학교,장애인용 화장실,학교
4557,37.4834015,126.9814144,사당동우체국,장애인용 화장실,우체국
11295,37.5503345,127.1040572,장로회신학대학교명성관.소망관기숙사,장애인용 화장실,학교
6489,37.5585259,126.8508281,경복여고,장애인용 화장실,학교
3785,37.5378744,127.09034879999999,광진우체국,장애인용 화장실,우체국
9466,37.6318165,127.0274041,성신여대운정캠퍼스,장애인용 화장실,학교
3316,37.6208615,126.9197006,청구성심병원,장애인용 화장실,종합병원
11286,37.6168661,127.04833020000001,장곡초등학교,장애인용 화장실,학교
6484,37.5876964,126.97170039999999,경복고등학교,장애인용 화장실,학교
8230,37.4731322,126.9350602,백상어린이집,장애인용 화장실,학교
5246,37.5236439,126.88823290000002,양평1동주민센터,장애인용 화장실,지역자치센터
1304,37.4917789,127.11788100000001,롯데마트 송파점,장애인용 화장실,수퍼마켓·일용품 등의 도매·소매시장
8233,37.4807876,126.99666880000001,백석대학원,장애인용 화장실,교육원·직업훈련소·학원
8244,37.5483219,126.85895819999999,백석중학교,장애인용 화장실,학교
11279,37.5163189,127.08763529999999,잠신중학교,장애인용 화장실,학교
10282,37.508998999999996,126.8455485,양천고등학교,장애인용 화장실,학교
4134,37.523491799999995,127.13672949999999,둔촌1동 주민센터,장애인용 화장실,지역자치센터
12348,37.5284667,127.141475,한산초등학교,장애인용 화장실,학교
3320,37.541002399999996,126.8389473,청산입시학원(청산빌딩튼튼병원)G8-F2,장애인용 화장실,종합병원
8223,37.5791763,126.9658922,배화여자고등학교,장애인용 화장실,학교
2847,37.5035432,127.137425,송파참병원,장애인용 화장실,종합병원
6476,37.54333670000001,127.0503405,경동초등학교,장애인용 화장실,학교
6477,37.4923894,126.98158079999999,경문고등학교,장애인용 화장실,학교
1302,37.498315999999996,126.87275349999999,롯데마트,장애인용 화장실,수퍼마켓·일용품 등의 도매·소매시장
2148,37.5340809,127.14093799999999,"길동노인요양병원(동화빌딩 4,5층)",장애인용 화장실,종합병원
12346,37.52872650000001,127.1402442,한산중학교,장애인용 화장실,학교
4554,37.4856704,126.96700359999998,사당5동주민센터,장애인용 화장실,지역자치센터
11282,37.50710770000001,127.0843746,잠전초등학교,장애인용 화장실,학교
6533,37.5406565,127.04721550000001,경일초등학교,장애인용 화장실,학교
3311,37.5903529,127.01102820000001,첫단추조산원,장애인용 화장실,종합병원
9469,37.5942908,127.02242890000001,성신여자고등학교,장애인용 화장실,학교
5230,37.48454570000001,127.03785549999999,양재지구대,장애인용 화장실,경찰서
10259,37.5259719,126.85142079999999,양동초등학교,장애인용 화장실,학교
1344,37.47842,126.88502920000002,마리오아울렛3,장애인용 화장실,수퍼마켓·일용품 등의 도매·소매시장
8199,37.5653545,126.80650700000001,방화중학교,장애인용 화장실,학교
8203,37.4988176,127.09570190000001,배명중고등학교,장애인용 화장실,학교
11312,37.6007256,127.08000619999999,장안중학교,장애인용 화장실,학교
4567,37.576333,126.96858799999998,사직동치안센터,장애인용 화장실,경찰서
6522,37.543915999999996,127.0474705,경일고등학교,장애인용 화장실,학교
3789,37.5698583,126.9781097,광화문우체국,장애인용 화장실,우체국
6518,37.5330714,126.8864688,경인초등학교,장애인용 화장실,학교
1335,37.5686997,127.01192649999999,롯데호텔및백화점,장애인용 화장실,수퍼마켓·일용품 등의 도매·소매시장
2129,37.4996564,126.8663737,구로성심병원,장애인용 화장실,종합병원
8209,37.55005379999999,126.9647264,배문고등학교,장애인용 화장실,학교
6514,37.498208899999995,126.85467290000001,경인중학교,장애인용 화장실,학교
8210,37.5802181,127.0660625,배봉초등학교,장애인용 화장실,학교
1331,37.4838632,126.930252,롯데시네마 신림,장애인용 화장실,수퍼마켓·일용품 등의 도매·소매시장
9475,37.591517100000004,127.02288329999999,성신여자대학교 성신관,장애인용 화장실,학교
2135,37.6388781,127.0105162,국립재활원,장애인용 화장실,종합병원
1321,37.61459470000001,127.0305364,롯데백화점 미아점,장애인용 화장실,수퍼마켓·일용품 등의 도매·소매시장
11301,37.5130019,126.8451513,장수초등학교,장애인용 화장실,학교
2134,37.5614,126.999275,국립의료원,장애인용 화장실,종합병원
6502,37.5403568,127.05832690000001,경수초등학교,장애인용 화장실,학교
8216,37.5561083,127.15085,배재고 다목적홀,장애인용 화장실,교육원·직업훈련소·학원
1319,37.4904955,126.92497990000001,롯데백화점 관악점,장애인용 화장실,수퍼마켓·일용품 등의 도매·소매시장
10269,37.5348671,126.88697759999998,양정고등학교,장애인용 화장실,학교
6506,37.5922081,127.00012350000002,경신고등학교,장애인용 화장실,학교
6507,37.4967754,126.8656896,경인고등학교,장애인용 화장실,학교
10268,37.538363000000004,126.8235121,양원초등학교,장애인용 화장실,학교
11302,37.5038745,126.94078619999999,장승중학교,장애인용 화장실,학교
2850,37.5137931,127.1146963,송파청병원,장애인용 화장실,종합병원
5234,37.51655220000001,126.8655457,양천경찰서,장애인용 화장실,경찰서
5237,37.517061,126.86654879999999,양천구청,장애인용 화장실,지역자치센터
11199,37.5361201,126.98813009999999,이태원초등학교,장애인용 화장실,학교
6892,37.5486261,126.85487720000002,그리스도대학교(본관),장애인용 화장실,학교
3861,37.553198200000004,127.0209188,"금호2,3가동주민센터",장애인용 화장실,지역자치센터
7307,37.5318719,126.8996044,당서초등학교,장애인용 화장실,학교
7628,37.500947499999995,126.8675318,동양공업 전문대학,장애인용 화장실,학교
7304,37.5396641,126.89632150000001,당산초등학교,장애인용 화장실,학교
9909,37.5067665,126.87972020000001,신미림초등학교,장애인용 화장실,학교
1816,37.4629848,126.9071213,시흥4동시범공중화장실,장애인용 화장실,화장실
7300,37.5314441,126.9075864,당산중학교,장애인용 화장실,학교
4805,37.608988599999996,127.05523159999998,석관지구대,장애인용 화장실,경찰서
11979,37.53489520000001,126.95522539999999,키스톤어린이집,장애인용 화장실,학교
3948,37.5674109,127.0612929,답십리2동주민센터,장애인용 화장실,지역자치센터
7632,37.6262625,127.03385120000002,동양어린이집,장애인용 화장실,학교
9915,37.6639925,127.0299392,신방학중,장애인용 화장실,학교
7291,37.491526,126.934688,당곡중학교,장애인용 화장실,학교
3126,37.6396884,127.0741354,욱현하이브(요양병원),장애인용 화장실,종합병원
9918,37.6660343,127.02917620000001,신방학초,장애인용 화장실,학교
3030,37.4843925,126.98058130000001,연세바른병원,장애인용 화장실,종합병원
7287,37.568774,127.05540859999999,답십리초등학교,장애인용 화장실,학교
4932,37.63068320000001,127.01759890000001,수유1동지구대,장애인용 화장실,경찰서
1820,37.5959645,126.9119679,신흥어린이공원 공중화장실,장애인용 화장실,화장실
9925,37.4854265,126.94918059999999,신봉초등학교,장애인용 화장실,학교
7282,37.60489329999999,127.03108700000001,달빛마루도서관,장애인용 화장실,도서관
4005,37.48665220000001,126.9059495,대방지구대,장애인용 화장실,경찰서
4935,37.644644,127.01991409999998,수유2동주민센터,장애인용 화장실,지역자치센터
7636,37.6038248,127.1089077,동원중학교,장애인용 화장실,학교
3025,37.55627379999999,127.08091840000002,연세무척나은병원,장애인용 화장실,종합병원
7641,37.604669799999996,127.1051446,동원초등학교,장애인용 화장실,학교
11985,37.5099333,127.1165479,키즈온어린이집,장애인용 화장실,학교
9773,37.5078816,126.9288774,숭의여자고등학교,장애인용 화장실,학교
7271,37.49554570000001,127.0563044,단대부속고등학교,장애인용 화장실,학교
11767,37.66400150000001,127.04927420000001,창도초,장애인용 화장실,학교
3020,37.604071399999995,126.92447560000001,연세노블병원,장애인용 화장실,종합병원
1819,37.4820859,126.92739089999999,신원시장 공중화장실,장애인용 화장실,화장실
7308,37.526522299999996,126.88999369999999,당중초등학교,장애인용 화장실,학교
11786,37.6631487,127.0497375,창동중,장애인용 화장실,학교
4925,37.4982938,127.0301058,수서경찰서,장애인용 화장실,경찰서
7603,37.585070200000004,127.00305130000001,동성고등학교,장애인용 화장실,학교
7604,37.625475099999996,127.02269409999998,동성어린이집,장애인용 화장실,학교
11815,37.648811200000004,127.0468374,창일중,장애인용 화장실,학교
9888,37.4695985,126.9239668,신림동 어린이집,장애인용 화장실,학교
7343,37.492413,126.90727520000002,대림중학교,장애인용 화장실,학교
1720,37.6239024,126.9166598,갈곡리어린이공원 화장실,장애인용 화장실,화장실
9889,37.5409667,127.14996799999999,신명중학교,장애인용 화장실,학교
3955,37.5735875,127.0533723,답십리지구대,장애인용 화장실,경찰서
4813,37.5324318,127.1295521,성내2동 주민센터,장애인용 화장실,지역자치센터
1809,37.60395250000001,126.92389209999999,새록어린이공원화장실,장애인용 화장실,화장실
9793,37.5572102,126.9236366,승무원학원,장애인용 화장실,교육원·직업훈련소·학원
7335,37.4935889,126.90048689999999,대동초등학교,장애인용 화장실,학교
7611,37.53687070000001,127.1342436,동신중학교,장애인용 화장실,학교
7332,37.581891999999996,126.98792900000001,대동세무 고등학교,장애인용 화장실,학교
11804,37.6524941,127.0406629,창원초,장애인용 화장실,학교
11803,37.6134821,127.036375,창문여자고등학교,장애인용 화장실,학교
9896,37.5125989,126.8734831,신목고등학교,장애인용 화장실,학교
1815,37.623019299999996,126.9358996,시범공중화장실,장애인용 화장실,화장실
3117,37.65745020000001,127.01394479999999,우이새길병원,장애인용 화장실,종합병원
7314,37.6489076,127.05839399999999,당현초등학교,장애인용 화장실,학교
9902,37.5370994,126.87274029999999,신목중학교,장애인용 화장실,학교
7318,37.494042799999995,126.87286100000001,대건어린이집,장애인용 화장실,학교
3952,37.5706093,127.0490185,답십리우체국,장애인용 화장실,우체국
7653,37.665314,127.0545338,동일초등학교,장애인용 화장실,학교
11972,37.499887799999996,126.9133367,큰별어린이집,장애인용 화장실,학교
7323,37.4946298,127.06485259999998,대곡초등학교,장애인용 화장실,학교
7324,37.5776266,127.02442109999998,대광중고등학교,장애인용 화장실,학교
4001,37.508133,126.92635,대방동주민센터,장애인용 화장실,지역자치센터
11798,37.6433821,127.041175,창림초,장애인용 화장실,학교
1812,37.5588806,126.8499866,서낭당근린공원화장실(관리사무실),장애인용 화장실,화장실
4918,37.67967410000001,127.0548125,수락산우체국,장애인용 화장실,우체국
7620,37.4905671,127.1254543,동아키즈어린이집,장애인용 화장실,학교
11763,37.6565018,127.03468159999998,창경초,장애인용 화장실,학교
7654,37.4831175,126.96440619999998,동작고등학교,장애인용 화장실,학교
3945,37.5537641,127.08056940000002,능동주민센터,장애인용 화장실,지역자치센터
7222,37.6852596,127.050425,누원고,장애인용 화장실,학교
9950,37.5003417,126.9440875,신상도초등학교,장애인용 화장실,학교
12006,37.5346751,126.82537930000001,키즈피아어린이집,장애인용 화장실,학교
3011,37.507223100000004,127.03260300000001,여러분병원,장애인용 화장실,종합병원
4965,37.5780162,127.0155781,숭인우체국,장애인용 화장실,우체국
11734,37.4525136,126.9017919,진학학원,장애인용 화장실,교육원·직업훈련소·학원
7678,37.644578100000004,127.07287290000001,동천학교,장애인용 화장실,학교
14984,37.568838299999996,126.9782419,한국의집,장애인용 화장실,일반음식점
7214,37.614163500000004,126.9081847,누오어린이집,장애인용 화장실,학교
7213,37.6296088,127.01746740000002,놀이카페어린이집,장애인용 화장실,학교
4014,37.614182,126.92083240000001,대조동 주민센터,장애인용 화장실,지역자치센터
9953,37.6516027,127.0635236,신상중학교,장애인용 화장실,학교
3144,37.50385120000001,127.04817340000001,유디 치과의원(현정빌딩),장애인용 화장실,종합병원
7210,37.517287100000004,127.0372013,논현도서관,장애인용 화장실,도서관
7682,37.5499799,127.0191179,동호유치원,장애인용 화장실,학교
1839,37.5052003,127.13167390000001,오금공원인라인장화장실,장애인용 화장실,화장실
